poi_id,name,region,locality,address,postcode,longitude,latitude,category_level1,category_level2,category_level3,business_status,phone,website_domain,rating,rating_count,traffic_score,time_spent,update_month
c76872c32c22faa5364c9e69901b68d1,Prits Leather Art (P) Ltd.,Uttar Pradesh,Noida,"D-254, D Block, Sector 63, Noida, Uttar Pradesh 201301, India",201301,77.38743448,28.62766349,Industrial & Manufacturing & Resources,Wholesale & Distribution,Leather exporter,Open,+91 120 427 3403,pritsleather.com,4.5,135,,People typically spend 15 min to 1.5 hr here,Mar-25
c93db6492efab7df52bb6df26b038026,Armstrong Dematic,Maharashtra,Malegaon Tilwan,"MH SH 7, Malegaon Tilwan, Maharashtra 423301, India",423301,74.1969291,20.57400891,Industrial & Manufacturing & Resources,Wholesale & Distribution,Industrial equipment supplier,Open,+91 2555 225 294,armstrongltd.com,4.5,33,,People typically spend 15 min to 1.5 hr here,Mar-25
18bf02725c5fc84a2ca84e2fdcd62af4,Sarla Performance Fibers Limited,Gujarat,Vapi,"40 Shed Area, GIDC, Vapi, Gujarat 396191, India",396191,72.93342787,20.35167147,Industrial & Manufacturing & Resources,Wholesale & Distribution,Threads and yarns wholesaler,Open 24 hours,+91 22 2283 4116,sarlafibers.com,3.1,10,,People typically spend 15 min to 1.5 hr here,Mar-25
f009e82a2aa83c1760ac2981fc106d6e,MARIS Associates Private Limited,Tamil Nadu,Thoothukudi,"C102, Sipcot Industrial Complex, Madathur, Thoothukudi, Tamil Nadu 628008, India",628008,78.08984136,8.80106345,Industrial & Manufacturing & Resources,Wholesale & Distribution,Plastic bag supplier,Open,+91 461 234 0166,marisfibc.com,4.1,15,,People typically spend 25 min to 2.5 hr here,Mar-25
17fde7c671f4a99e299504b869bc35ee,S. R. Agrotech,Karnataka,Tumakuru,"Near Bethur Gate Bellavi, Road, Bheemasandra, Tumakuru, Karnataka 572107, India",572107,77.06961332,13.35157925,Industrial & Manufacturing & Resources,Wholesale & Distribution,Agricultural product wholesaler,Open,+91 94488 66543,sragrotech.in,3.6,17,,People typically spend 15 min to 1 hr here,Mar-25
e85d3a128586fc1f2d290099cab9aaef,"Ultimate Power Systems (Hykon Authorized Distributor for Solar Water Heater ,Solar inverter)",Kerala,Thodupuzha,"Ultimate power systems kaniyaparambil building ,kolani Pala, Pala-Thodupuzha Rd, Thodupuzha, Kerala 685608, India",685608,76.69972622,9.88150618,Industrial & Manufacturing & Resources,Wholesale & Distribution,Solar energy equipment supplier,Open,+91 81380 38254,facebook.com,4.5,17,,People typically spend 15 min here,Mar-25
140d1a31a81be1727b5b4c4fb6d2ceb2,Manohar Foods,Madhya Pradesh,Bhopal,"Plot no. 6, Sector B, Govindpura Industrial Area, Bhopal, Madhya Pradesh 462023, India",462023,77.45100451,23.25881896,Industrial & Manufacturing & Resources,Wholesale & Distribution,Food manufacturing supply,Open,+91 755 426 0309,manohardairy.com,4.4,19,,People typically spend 20 min to 2 hr here,Mar-25
12ef850ec36bdb18f40e2093ce88998c,LOOKS LUXURIOUS FURNITURE MALL,Gujarat,Morbi,"8, Lati Plot Main Rd, jonsh nagar, Morbi, Gujarat 363641, India",363641,70.82823096,22.81679096,Industrial & Manufacturing & Resources,Wholesale & Distribution,Furniture wholesaler,Open,+91 84900 95095,youtube.com,4.1,46,,People typically spend 15 min to 1 hr here,Mar-25
1f0bd2fcad2431d032ef6b53a97de234,Vikas Rubbers,Kerala,Kottayam,"Manarcadu Thengana Road, Thalappady, Kottayam, Kerala 686019, India",686019,76.58004714,9.57669457,Industrial & Manufacturing & Resources,Industrial & Resource Production,Rubber products supplier,Open,+91 95262 67550,vikasrubbermats.com,5,9,,People typically spend 15 min to 1.5 hr here,Mar-25
3cae0058b41a514ebb1609367a6bce0b,Shivaganga Farmers Producer Company Ltd,Karnataka,Nelamangala Town,"GF, Survey No 10, Kempalinganahalli, Nelamangala Kasaba Hobli, Bengaluru, rural, Nelamangala Town, Karnataka 562123, India",562123,77.37455557,13.09316373,Industrial & Manufacturing & Resources,Wholesale & Distribution,Vegetable wholesaler,Open,+91 91410 40866,shivaganga.in,4.5,198,,People typically spend 15 min to 1 hr here,Mar-25
1391557e07edb9a3b4ce1ad2eb0af235,Pmark Flour Mill - P Mark Products Manufacturers & Suppliers in Jammu and Kashmir,Jammu and Kashmir,Jammu,"1 A/C WARE HOUSE, Jammu, 180004, Jammu and Kashmir 180004",180004,74.8573297,32.71566761,Industrial & Manufacturing & Resources,Wholesale & Distribution,Food manufacturing supply,Open,+91 191 243 5170,pmarkproducts.com,4.3,46,,People typically spend 15 min to 1 hr here,Mar-25
3cca39b55de343919034c125592f5eb1,Vikram Engineering Works,Gujarat,Ahmedabad,"26-B Maheshwari Industries Estate Nr.Maheshwari Mills,, Shahibaug, Ahmedabad, Gujarat 380004, India",380004,72.58560654,23.04477982,Industrial & Manufacturing & Resources,Industrial & Resource Production,Machine shop,Open,+91 84690 14508,vikramengineering.com,4.8,17,,People typically spend 15 min to 1 hr here,Mar-25
629f3e815092646783f4f0c0c4604455,KR Fuels - Auto LPG Station - Hosur,Tamil Nadu,Hosur,"No.989,/3A,Seetharam Nagar,Chennathur Village,NH7 Krishngiri Bye-pass Road, Hosur, Tamil Nadu 635109, India",635109,77.8411178,12.72886992,Industrial & Manufacturing & Resources,Utilities & Energy,Fuel supplier,Open 24 hours,+91 95855 30267,krfuels.com,4.1,123,,People typically spend 15 min here,Mar-25
a738bbff0c8fb5583b497aaa6d27f150,F K Traders The kirana store,Telangana,Hyderabad,"Shop No 22, 1-116, Chaderghat Rd, Kali Kaber, Sultanpura, Imlibun, Malakpet, Hyderabad, Telangana 500024, India",500024,78.48536584,17.37554151,Industrial & Manufacturing & Resources,Wholesale & Distribution,Wholesaler,Open,+91 80080 00830,wa.link,4.5,89,,People typically spend 15 min to 1 hr here,Mar-25
5b23fc71fd45398490b945da8f87dc5a,Neo Plast Industries,Kerala,Perumbavoor,"KoovappadyPost, Thodaparambu, Perumbavoor, Kerala 683544, India",683544,76.47982913,10.13051427,Industrial & Manufacturing & Resources,Wholesale & Distribution,Plastic bag supplier,Open,+91 94465 56233,neoplastindustries.in,4.1,15,,People typically spend 25 min to 1.5 hr here,Mar-25
175c84fc8f5a76cd7fec0b87a5fda9c4,Roger Industries Ltd.,Uttar Pradesh,Agra,"Mathura Rd, Artauni, Agra, Uttar Pradesh 282007, India",282007,77.89669078,27.22807093,Industrial & Manufacturing & Resources,Industrial & Resource Production,Shoe factory,Open,+91 99272 30666,rogerexports.com,4,63,,People typically spend 15 min to 2.5 hr here,Mar-25
700f35e0fa340530f3f1ba697413b765,Orbit Energy || Solar Equipment Supplier || Raanebennur,Karnataka,Ranebennur,"HALAGERI, ROAD, near BYPASS, Ranebennur, Karnataka 581115, India",581115,75.62222081,14.60116465,Industrial & Manufacturing & Resources,Wholesale & Distribution,Solar energy equipment supplier,Open,+91 96202 27282,orbitenergy.in,4.2,14,,People typically spend 15-45 min here,Mar-25
3d6b0c4f3409408324979c5e27d605df,Polycab Distributor - Vijayshree Agencies,Karnataka,Hosapete,"Plot No 26, Sanklapur Industrial Area, Hosapete, Karnataka 583201, India",583201,76.40596369,15.2577145,Industrial & Manufacturing & Resources,Wholesale & Distribution,Electrical products wholesaler,Open,+91 1800 572 6412,vijayshreegroup.com,4,4,,People typically spend 15 min to 1 hr here,Mar-25
3e489edcbd483691c8dcbb6dfc5ae9f0,Gaiety Fashion Kay Vee Fashion,Tamil Nadu,Tiruppur,"Karumarampalayam Rd, Karumarpalayam, Tiruppur, Tamil Nadu 641602, India",641602,77.36832997,11.11281271,Industrial & Manufacturing & Resources,Wholesale & Distribution,Garment exporter,Open,+91 421 425 4414,gaietyfashion.com,3.8,43,,People typically spend 15 min to 1 hr here,Mar-25
7f30619fc9c0790b809c642a7920553d,S Granites And Ceramics Private Limited | Central India's Leading Natural Stones Supplier,Madhya Pradesh,Indore,"Plot No. 11, Ring Rd, Service Rd, Sector - FA Scheme 94, Opp. Hanuman Mandir, Near Bangali Square, Ashish Nagar, Brijeshwari Annexe, Indore, Madhya Pradesh 452016, India",452016,75.90622584,22.71160626,Industrial & Manufacturing & Resources,Wholesale & Distribution,Marble supplier,Open,+91 73899 48113,sgraniteandceramics.com,4.2,29,,People typically spend 20 min here,Mar-25
d4b13dfa4d82df5f00d716c2e4b23d99,Krishna Indane Services,Kerala,Nattukal,"SH25, Nattukal, Kerala 678555, India",678555,76.80848049,10.73578864,Industrial & Manufacturing & Resources,Utilities & Energy,Gas cylinders supplier,Open,+91 85084 73106,locator.iocl.com,4.1,36,,People typically spend 15 min here,Mar-25
99d6a53077003ef16ae71c7f4a21df81,Luxmi Premium Grains India Pvt. Ltd.,Uttar Pradesh,"Faizabad, Ranimau","Plot No. 2073, 2075 Adjacent Bank Of Baroda, Ranimau, Tehsil-Rudauli, Faizabad, Uttar Pradesh 225415, India",225415,81.58745417,26.78399826,Industrial & Manufacturing & Resources,Agriculture & Forestry,Agricultural service,Open,+91 85880 40297,lpgrice.com,4.1,23,,People typically spend 15-45 min here,Mar-25
335f036771ae29b4cdc5f1281470a6d9,Lakshya Infrapromoters Pvt Ltd,Uttar Pradesh,Greater Noida,"I-77, I-78, Site C, UPSIDC Surajpur Industrial Area, Greater Noida, Uttar Pradesh 201306, India",201306,77.51941191,28.5191273,Industrial & Manufacturing & Resources,Industrial & Resource Production,Water pump supplier,Open,+91 98180 84899,lipl.co.in,4.7,39,,People typically spend 20 min to 1 hr here,Mar-25
de202250b2ac83abb6606c412fcea8de,Jain Resource Recycling Private Limited,Tamil Nadu,"Pappankuppam, Gummidipoondi","R2, R3, SIPCOT industrial complex, Plot No.R1, Anthoni Pillai Nagar, Pappankuppam, Gummidipoondi, Tamil Nadu 601201, India",601201,80.09063528,13.41850824,Industrial & Manufacturing & Resources,Waste & Recycling,Recycling center,Open 24 hours,+91 44 4213 0100,jainmetalgroup.com,3.5,8,,People typically spend 20 min to 3 hr here,Mar-25
092f9916e3eff7c6ae8e8b3210a5a446,Koyambedu vegetable market,Tamil Nadu,Chennai,"Shop no D2, Vegetable market, Wholesale Market Complex, Koyambedu, Chennai, Tamil Nadu 600092, India",600092,80.19464695,13.06795495,Industrial & Manufacturing & Resources,Wholesale & Distribution,Vegetable wholesale market,Open,+91 97157 25735,daatacenter.com,4.1,2888,,People typically spend 25 min to 1.5 hr here,Mar-25
ca08c8540f539b4cd20032f40b400172,Maruti Suzuki Genuine Parts Distributor (Sai Service Spares & Accessories Pvt. Ltd.) Kannur Kakkad Road,Kerala,Kannur,"Mariyam Arcade, Kakkad Rd, South Bazar, Puzhathi Housing Colony, Kannur, Kerala 670002, India",670002,75.37697113,11.87847516,Industrial & Manufacturing & Resources,Wholesale & Distribution,Wholesaler,Open,+91 86069 80018,saiservice.com,4.4,46,,People typically spend 15 min here,Mar-25
5db972879beed643945ca5a3f7819d47,Jio Service centre,Madhya Pradesh,Seoni,"Bhagat Singh Ward, Seoni, Madhya Pradesh 480661, India",480661,79.5442438,22.08961565,Industrial & Manufacturing & Resources,Wholesale & Distribution,Office accessories wholesaler,Open,+91 1800 889 9999,jio.com,3.8,73,,People typically spend 25 min here,Mar-25
71d3c71f7543cbfd891df0185dd3267b,Diffusion Engineers Limited,Maharashtra,"Nagpur, Nildoh ct","T-5 & 6 Hingna Industrial Area, Midc, Nagpur, Maharashtra 440016, India",440016,78.9869068,21.11886324,Industrial & Manufacturing & Resources,Wholesale & Distribution,Industrial equipment supplier,Open,+91 7104 232 084,diffusionengineers.com,4.1,20,,People typically spend 15 min to 2 hr here,Mar-25
f792ea7cec269554a2b38ff81548f31b,Pragati Industries,Maharashtra,"Sangli, Sangli Miraj Kupwad","Plot No. 134, Vasantdada Industrial Estate, Sangli, Maharashtra 416416, India",416416,74.58544578,16.87624517,Industrial & Manufacturing & Resources,Agriculture & Forestry,Agricultural service,Open,+91 233 234 0941,centrifugalpumpindia.in,4.1,9,,People typically spend 15-45 min here,Mar-25
d89ff7d54feabfba6317400fb7884592,Sri Sai Venkata Teja Chemicals,Andhra Pradesh,Piduguralla,"Piduguralla, Andhra Pradesh 522413, India",522413,79.90796244,16.46857983,Industrial & Manufacturing & Resources,Wholesale & Distribution,Factory equipment supplier,Open 24 hours,+91 98494 53041,sites.google.com,5,23,,People typically spend 20 min to 1.5 hr here,Mar-25
4409590c52d00bacb4d290391de39488,Rk Marbles India,Rajasthan,Makrana,"RK Marbles, Byepass Road, Borawar, Makrana, Rajasthan 341505, India",341505,74.69256635,27.02645276,Industrial & Manufacturing & Resources,Wholesale & Distribution,Marble supplier,Open,+91 99289 79999,rkmarblesindia.com,4.7,267,,People typically spend 15 min to 1 hr here,Mar-25
bd7d150cbaf86470253c95e28499ff24,Ficom Engineering Private Limited,Karnataka,Chokkahalli,"Opposite to Warm Gears pvt ltd factory gate pillugumpe, Chokkahalli, Karnataka 562114, India",562114,77.82488753,13.12504453,Industrial & Manufacturing & Resources,Industrial & Resource Production,Fiberglass supplier,Open,+91 98453 89609,frpficom.com,4.9,10,,People typically spend 25 min to 2 hr here,Mar-25
adb033abdc36a6764f3f6d13d3465b5a,Secan Invescast India Private Limited,Tamil Nadu,Coimbatore,"S.F.No.504/2C, Rangasamykonar Nagar,Echanari, Salem-Ernakulam, Highway, Coimbatore, Tamil Nadu 641021, India",641021,76.98492435,10.91633192,Industrial & Manufacturing & Resources,Wholesale & Distribution,Industrial equipment supplier,Open 24 hours,+91 94433 75196,secangroups.com,4.9,11,,People typically spend 20 min to 2 hr here,Mar-25
5f1276b7ca3e82ba64a2ccbbdd973784,Project Sales Corp,Andhra Pradesh,Visakhapatnam,"28, Founta Plaza, opp. Keys Hotel, Suryabagh, Jagadamba Junction, Visakhapatnam, Andhra Pradesh 530020, India",530020,83.29870975,17.71293482,Industrial & Manufacturing & Resources,Wholesale & Distribution,Industrial equipment supplier,Open,+91 98851 49412,pscrigconsumables.com,4.6,32,,People typically spend 15 min to 1 hr here,Mar-25
5d09333b88bd4406cafe42feee643abb,PPNS - PREMIUM QUALITY GROCERY SHOP(SHRI PUSHPAM TRADERS),Tamil Nadu,Nattapettai,"20/1, velathamman kovil street, Little, Tamil Nadu 631501, India",631501,79.72623261,12.82106916,Industrial & Manufacturing & Resources,Wholesale & Distribution,Wholesale grocer,Open,+91 96008 12123,ppnsdhall.com,4.3,355,,People typically spend 20 min here,Mar-25
224fc15e6f6379460162f0d1ffa1896c,Maurya Industries,Maharashtra,Gokul Shirgaon,"A12, MIDC, Gokul Shirgaon, Maharashtra 416234, India",416234,74.28315075,16.64513763,Industrial & Manufacturing & Resources,Wholesale & Distribution,Industrial equipment supplier,Open,+91 95525 51990,mauryagroup.co.in,4.7,24,,People typically spend 15 min to 1.5 hr here,Mar-25
d1a3b1bebef8c52667f89c66adda1127,D.R. Engineering Works,Uttar Pradesh,Greater Noida,"I-145 Site C, Surajpur Industrial Area, Block I, UPSIDC Site C, Gulistanpur, Greater Noida, Uttar Pradesh 201306, India",201306,77.51549374,28.51683835,Industrial & Manufacturing & Resources,Wholesale & Distribution,Industrial equipment supplier,Open,+91 98115 93200,drengg.com,4.5,12,,People typically spend 15 min to 1 hr here,Mar-25
27f5d195aef5d09a172231e0011e3522,devi pharma,Karnataka,Bengaluru,"Gavipuram Extension, Banashankari 1st Stage, Banashankari, Bengaluru, Karnataka 560050, India",560050,77.55593957,12.94780481,Industrial & Manufacturing & Resources,Wholesale & Distribution,Pharmaceutical products wholesaler,Open,+91 98452 57154,devipharma.com,4.1,8,,People typically spend 15-45 min here,Mar-25
5531a8ed4200a2751e7a02e15d5b5735,Krishnendra Nursery,Karnataka,Bengaluru,"9-159, Lalbagh, Ashoka Pillar Rd, 1st Block, Siddapura, Jayanagar, Bengaluru, Karnataka 560011, India",560011,77.58958213,12.94239956,Industrial & Manufacturing & Resources,Wholesale & Distribution,Wholesale plant nursery,Open,+91 80 2656 7594,krishnendranursery.in,4.1,267,,People typically spend 20 min to 1 hr here,Mar-25
fc23c530bc62f45574e56a214cd0d433,"Mayoori Furniture, Electronics and Home Appliances",Kerala,Kollam,"Old Ushas Auditorium, Pallimukku, Kerala 691010, India",691010,76.62747029,8.8751066,Industrial & Manufacturing & Resources,Wholesale & Distribution,Furniture wholesaler,Open,+91 75938 00200,mayoorihome.com,4.9,5977,,People typically spend 20 min to 1 hr here,Mar-25
a292872c8a194db704c40b19f219adab,Anupam Stores - Home Decor | Crockery | Furniture | Kitchenware,Rajasthan,Jaipur,"68 Suraj Nagar West, opposite metro pillar no. 61 Civil Lines, Sodala, Jaipur, Rajasthan 302006, India",302006,75.77541953,26.90357189,Industrial & Manufacturing & Resources,Wholesale & Distribution,Wholesaler household appliances,Open,+91 99299 94251,anupamstores.com,4.3,641,,People typically spend 15-45 min here,Mar-25
99e0895f204145c50e133382a1aed433,Accurate Engineering Company Pvt. Ltd,Maharashtra,Pune,"67, B Takar Path, Swami Vivekanand Nagar, Hadapsar Industrial Estate, Hadapsar, Pune, Maharashtra 411013, India",411013,73.91104193,18.51358465,Industrial & Manufacturing & Resources,Industrial & Resource Production,Measuring instruments supplier,Open,+91 80 3740 3781,accuratemetrologycompany.com,3.7,73,,People typically spend 15 min to 2 hr here,Mar-25
09ab9eeb1f2f87647ac9728cb2c9c830,ALL FOR BAKES - bakery raw material | bakery ingredients | cake premix wholesaler in delhi,Delhi,"New Delhi, Delhi","7, Block K, Gopal Nagar, Fateh Nagar, New Delhi, Delhi, 110018, India",110018,77.10206866,28.63414314,Industrial & Manufacturing & Resources,Wholesale & Distribution,Wholesale bakery,Open,+91 93508 33496,allforbakes.com,3.6,69,,People typically spend 20 min here,Mar-25
209ed9a5b93446e6b9cc48fbb36054a8,Sri Thirumurugan Traders,Tamil Nadu,Erode,"31, Krishnan Street, Sathy Rd, Erode, Tamil Nadu 638003, India",638003,77.72429924,11.34691021,Industrial & Manufacturing & Resources,Industrial & Resource Production,Screw supplier,Open,+91 94437 11340,srithirumurugantraders.in,4.8,5,,People typically spend 20 min here,Mar-25
29e1698f54ed0a71822abf0a42a5178e,SICGIL INDUSTRIAL GASES LIMITED,Madhya Pradesh,Pithampur,"PLOT NO.366 & 367, SECTOR - 1, PITHAMPUR, DHAR DISTRICT, MADHYA PRADESH, Pithampur, Madhya Pradesh 454775, India",454775,75.68854511,22.61489113,Industrial & Manufacturing & Resources,Industrial & Resource Production,Dry ice supplier,Open,+91 93032 76393,sicgil.com,4.9,49,,People typically spend 15 min to 1 hr here,Mar-25
38f12cb3770256b35a63e0871fd51971,Argon Air Gases Pvt. Ltd,Haryana,Faridabad,"Krishna Nagar, Sector 56A, Faridabad, Haryana 121004, India",121004,77.30014079,28.33541277,Industrial & Manufacturing & Resources,Industrial & Resource Production,Industrial gas supplier,Open,+91 129 244 2170,argongases.com,4.8,6,,People typically spend 20 min to 1.5 hr here,Mar-25
236ac5f6df7a47054344615d7749e4bb,Kyungshin Industrial Motherson Ltd (KIML),Tamil Nadu,Padappai,"bazzar street,navasakthi nagar, Vandalur - Oragadam - Walajabad Rd, Padappai, Tamil Nadu 601301, India",601301,80.01678891,12.88536891,Industrial & Manufacturing & Resources,Wholesale & Distribution,Auto body parts supplier,Open,+91 44 2717 4159,motherson.com,3.5,595,,People typically spend 20 min here,Mar-25
aaf10538da7dcae2e117ed60ed2962e6,BKG AUTOMOTIVE PVT. LTD.,Haryana,Bahadurgarh,"MIE Part-B, Bahadurgarh, Haryana 124507, India",124507,76.94993145,28.68748432,Industrial & Manufacturing & Resources,Wholesale & Distribution,Plastic products supplier,Open,+91 98992 99555,bkgautomotive.com,5,2,,People typically spend 25 min to 3 hr here,Mar-25
bf37e5229df016739051f8705799883d,"Gupta Distributors, Jatni | Best Electronics Store",Odisha,"Jatni, Khordha","Sitaram chhak, Jatni, Khordha, Odisha 752050, India",752050,85.70631922,20.15906419,Industrial & Manufacturing & Resources,Wholesale & Distribution,Electronics wholesaler,Open,+91 674 249 2932,guptadistributors.com,4.8,1401,,People typically spend 15-45 min here,Mar-25
a69e446cc21deac75af4e7aae1219e09,Anmol Marble Handicrafts,Rajasthan,"Kishangarh, Kishangarh Rural","National Highway 8, Ajmer Bypass, near airport handicraft market, Kishangarh, Rajasthan 305801, India",305801,74.84055564,26.59341722,Industrial & Manufacturing & Resources,Wholesale & Distribution,Marble supplier,Open,+91 98871 68007,anmolmarblehandicrafts.com,3.9,182,,People typically spend 20 min here,Mar-25
d12835d25497df78582f9bcac3fee9ac,Emmvee Photovoltaic Power Private Limited,Karnataka,Bengaluru,"13/1, International Airport Road, Bettahalasuru, Post, Bengaluru, Karnataka 562157, India",562157,77.62015665,13.15236478,Industrial & Manufacturing & Resources,Wholesale & Distribution,Solar energy equipment supplier,Open,+91 80 2217 4511,emmvee.com,3.2,185,,People typically spend 15 min to 2 hr here,Mar-25
a3856525e156714e98e1b78601e58a2d,Gokul Traders,Kerala,Alappuzha,"Market Place, Punnapra, Alappuzha, Kerala 688004, India",688004,76.34504752,9.43474144,Industrial & Manufacturing & Resources,Wholesale & Distribution,Wholesaler,Open,+91 98952 09385,gokultraders.com,4.4,28,,People typically spend 15 min here,Mar-25
31961c740c02da0f912514f8694ca9c4,Midex Vashi Marketing Pvt. Ltd.,Madhya Pradesh,Indore,"behind Emerald Heights School, Rau, Indore, Madhya Pradesh 453331, India",453331,75.81581269,22.65243777,Industrial & Manufacturing & Resources,Wholesale & Distribution,Industrial equipment supplier,Open,+91 91651 77175,vashielectricals.com,4.4,17,,People typically spend 10 min to 1 hr here,Mar-25
65a11ec37200cf7184141b6138f00d06,SKF Distributors : M P Brothers,Karnataka,Mangaluru,"Kulur Ferry Rd, Chilimbi, Ladyhill, Mangaluru, Karnataka 575006, India",575006,74.83558287,12.89316128,Industrial & Manufacturing & Resources,Wholesale & Distribution,Wholesaler,Open,+91 824 245 0783,mpbros.com,5,3,,People typically spend 15 min to 1 hr here,Mar-25
cbb951ce6e5e415be0e72f207890ac08,RISHI FIBC Solutions Pvt. Ltd.,Karnataka,Mysuru,"SY.Nos.70/1(P),70/2,71/1(P) & 71/3(P Thandya Industrial Area, Adakanahalli Village KIADB Road,Thandya Indi.Area Chikkaiahnachatra Hobli, Nanjangud, Taluka, Mysuru, Karnataka 571301, India",571301,76.69528027,12.16166773,Industrial & Manufacturing & Resources,Wholesale & Distribution,Plastic bag supplier,Open,+91 95733 30707,fluidflexitanks.com,4.3,243,,People typically spend 20 min to 3 hr here,Mar-25
da704453e8983e303d7619956c8670de,Moorti Mahal,Rajasthan,Jaipur,"Jaipur Mahal, 1, Amer Rd, near Jal Mahal, Kailashpuri, Ramgarhmode, Parasrampuri, Jaipur, Rajasthan 302002, India",302002,75.83949433,26.94890267,Industrial & Manufacturing & Resources,Wholesale & Distribution,Marble supplier,Open,+91 96022 29999,moortimahal.in,4.8,58,,People typically spend 20 min to 1.5 hr here,Mar-25
034ae6364f32013a8140ea5177e71410,"Gupta Distributors, Dolamundai",Odisha,Cuttack,"Pithapur Rd, opp. Baba sagar Das School, Dolamundai, Cuttack, Odisha 753001, India",753001,85.8824001,20.46233693,Industrial & Manufacturing & Resources,Wholesale & Distribution,Electronics wholesaler,Open,+91 70089 89303,guptadistributors.com,4.7,1114,,People typically spend 10-45 min here,Mar-25
7bfaa7502901def9ce9ac7297ba63401,Triveni Engineering & Industries Limited,Uttar Pradesh,Noida,"Water Business Group, Hosiery Complex Block A Rd, Hosiery Complex, Block B, Phase-2, Noida, Uttar Pradesh 201305, India",201305,77.40029162,28.5313463,Industrial & Manufacturing & Resources,Utilities & Energy,Water treatment plant,Open,+91 120 474 8000,trivenigroup.com,4.3,53,,People typically spend 20 min to 2.5 hr here,Mar-25
5d1a60ea6c5229f276fea231b0c438e3,Sonali Polymers Pvt. Ltd. ( Sonali Group ) Unit 1,Rajasthan,Bassi,"G1/17, NH 11, Bassi, Rajasthan 303301, India",303301,76.03930578,26.85366147,Industrial & Manufacturing & Resources,Industrial & Resource Production,Polymer supplier,Open 24 hours,+91 90010 93913,sonaligroup.in,3.9,28,,People typically spend 20 min to 2 hr here,Mar-25
91484ef2255b71c46e62c12ea8d1301d,KHAOSA,Rajasthan,"Bikaner, Beechhwal Rural","Industrial Area Rd, Bichhwal, Bikaner, Beechhwal Rural, Rajasthan 334004, India",334004,73.33093186,28.06811452,Industrial & Manufacturing & Resources,Wholesale & Distribution,Food manufacturing supply,Open,+91 72300 55760,khaosa.com,3.8,59,,People typically spend 15 min here,Mar-25
e370413542df44d8b92557a1c5cd9090,Dee Ess Traders (Best Bearings Supplier),Punjab,Ludhiana,"No B-XX1/12655, 3/A, Link Rd, Opp. Industrial Estate, Ludhiana, Punjab 141003, India",141003,75.86502211,30.89045133,Industrial & Manufacturing & Resources,Industrial & Resource Production,Bearing supplier,Open,+91 98140 22709,indiamart.com,5,13,,People typically spend 15 min here,Mar-25
2347083e293486e8301007031e653590,Keshodwala Foods,Gujarat,Somnath,"Somnath, Gujarat 362268, India",362268,70.39298743,20.90134971,Industrial & Manufacturing & Resources,Wholesale & Distribution,Seafood wholesaler,Open 24 hours,+91 2876 231 644,keshodwala.com,4.3,81,,People typically spend 15 min to 1 hr here,Mar-25
5deda7ac38ab14cceacc1bcdafcfc421,Anukkhan HP Gas Service,West Bengal,Kolkata,"plot no 6, Ave 1st Rd, Aurobindo Block, Santoshpur, Kolkata, West Bengal 700075, India",700075,88.38164886,22.49205416,Industrial & Manufacturing & Resources,Utilities & Energy,Gas cylinders supplier,Open,+91 33 2416 5800,hindustanpetroleum.com,3.4,140,,People typically spend 25 min here,Mar-25
56e552dd5d68f3fcc7be4bd373ff8ad7,Umiya Quarry,Gujarat,Degam,"Degam, Gujarat 396521, India",396521,73.10179965,20.80537282,Industrial & Manufacturing & Resources,Wholesale & Distribution,Stone supplier,Open 24 hours,+91 97371 63800,facebook.com,3.5,4,,People typically spend 20 min to 1 hr here,Mar-25
5d0037494af8105f3721d9a635cc0213,OM STEEL DISTRIBUTORS,Karnataka,Dharwad,"Old Apmc, Mrityunjaya Nagar, Dharwad, Karnataka 580006, India",580006,75.01404221,15.46698744,Industrial & Manufacturing & Resources,Industrial & Resource Production,Iron and steel store,Open,+91 72591 26666,m.facebook.com,4.6,49,,People typically spend 15-45 min here,Mar-25
79a8da1b6d17c7407da4e8942f878459,S K INDUSTRIES,Uttar Pradesh,Noida,"A-66, A Block, Sector 8, Noida, Uttar Pradesh 201301, India",201301,77.3280767,28.59256884,Industrial & Manufacturing & Resources,Industrial & Resource Production,Food processing equipment,Open,+91 93503 78368,pastamachinemanufacturers.com,4.7,73,,People typically spend 30 min to 1.5 hr here,Mar-25
1deebe708f9b80e9589f9cd381f81f29,Mother Nutri Foods Limited,Gujarat,Otha,"Survey No. 276, Petrol Pump, 1, Mahuva - Bhavnagar Hwy, Opp, Otha, Gujarat 364205, India",364205,71.84087351,21.16391928,Industrial & Manufacturing & Resources,Wholesale & Distribution,Food products supplier,Open 24 hours,+91 78783 83861,mothernutrifoods.com,4.6,49,,People typically spend 20 min to 1.5 hr here,Mar-25
3c3cdafb413e7bfb47224c87e4c31310,Anand Medical Distributorss,Maharashtra,Pune,"838, 839, Barister Gadgil Rd, Perugate, Sadashiv Peth, Pune, Maharashtra 411030, India",411030,73.84791284,18.51271196,Industrial & Manufacturing & Resources,Wholesale & Distribution,Wholesaler,Open,+91 20 2447 8067,amdpune.com,4.3,44,,People typically spend 20 min to 1.5 hr here,Mar-25
da5c7daad731f59f97c2e7f77c1f9d98,Parm House - Pharmaceutical distribution company in Pondicherry,Puducherry,Puducherry,"No.110, Chetty St, Heritage Town, Puducherry, 605001, India",605001,79.82877494,11.93759767,Industrial & Manufacturing & Resources,Wholesale & Distribution,Pharmaceutical products wholesaler,Open,+91 413 223 3819,parmhouse.net,4.5,2,,People typically spend 15 min to 1 hr here,Mar-25
17b83fa7241e940f95a3d87a6e34519c,Spectra Plast India Pvt Ltd,Tamil Nadu,"Kovilpalayam, Kuppepalayam","56 Subha Ganesh Industrial Estate Kuppepalayam, Kovilpalayam, Tamil Nadu 641107, India",641107,77.02165842,11.17239223,Industrial & Manufacturing & Resources,Wholesale & Distribution,Industrial equipment supplier,Open,+91 422 297 5872,spectraplast.in,4.6,116,,People typically spend 20 min to 1.5 hr here,Mar-25
9665fc88562781b603bba5b0305f034b,UNITED CONTROL ENGINEERS INDIA PRIVATE LIMITED,Uttar Pradesh,"Greater Noida, Khera Choganpur","Toy City, Plot No. 98, Ecotech-3rd, Ecotech III, Greater Noida, Khera Choganpur, Uttar Pradesh 201306, India",201306,77.46149664,28.53776365,Industrial & Manufacturing & Resources,Wholesale & Distribution,Industrial equipment supplier,Open,+91 93111 50492,unitedcontrolengg.com,4.2,41,,People typically spend 15 min to 1 hr here,Mar-25
ab9c08ac3995a7fd1a9546f006979ecb,Bharat Gas,West Bengal,Durgapur,"6/16, PC Road, B-Zone, Durgapur, West Bengal 713205, India",713205,87.32090996,23.5720773,Industrial & Manufacturing & Resources,Utilities & Energy,Gas cylinders supplier,Open,+91 343 256 6824,my.ebharatgas.com,3.9,58,,People typically spend 10 min to 1 hr here,Mar-25
d3906517d4d514d59e814ddc8cc74a77,Nahar Industrial Enterprises Limited,Punjab,Ludhiana,"Focal Point, (Punjab), Focal Point, Ludhiana, Punjab 141010, India",141010,75.90411438,30.88130464,Industrial & Manufacturing & Resources,Wholesale & Distribution,Textile exporter,Open,+91 161 267 2590,owmnahar.com,4,252,,People typically spend 15 min to 1.5 hr here,Mar-25
caf922da0be8e3b12c2b9f79ce8338ba,Srinivasa Medisales Pvt Ltd,Karnataka,Bengaluru,"# 40, KH Circle, opp. Lalbagh Gate, Sudhama Nagar, Bengaluru, Karnataka 560027, India",560027,77.59049075,12.95244472,Industrial & Manufacturing & Resources,Wholesale & Distribution,Pharmaceutical products wholesaler,Open,+91 80 4000 7999,groupunnati.com,4.4,12,,People typically spend 20 min to 1 hr here,Mar-25
6d7e6809c50babe53419011310c77ffc,PH Metals,Kerala,Ernakulam,"Near Sarita Theatre, Market Rd, Ernakulam, Kerala 682035, India",682035,76.27762387,9.98333329,Industrial & Manufacturing & Resources,Industrial & Resource Production,Iron and steel store,Open,+91 98467 14999,phmetals.in,4.5,38,,People typically spend 15 min to 1 hr here,Mar-25
9ba4e269c585ddcf82b51b784a4d31ad,Bhoomi Exotica Plant Nursery,Maharashtra,Navi Mumbai,"Thane - Belapur Rd, Dhirubhai Ambani Knowledge City, MIDC Industrial Area, Kopar Khairane, Navi Mumbai, Maharashtra 400709, India",400709,73.01298549,19.10080528,Industrial & Manufacturing & Resources,Wholesale & Distribution,Wholesale plant nursery,Open,+91 86930 99444,bhoomilandscapes.co,4.2,204,,People typically spend 15 min to 1 hr here,Mar-25
06d3bcb7c17fa41af92513a448c3dfeb,Maheshwary Marbles,Tamil Nadu,Coimbatore,"524/2, Thadagam Main Rd, Kanuvai, Coimbatore, Tamil Nadu 641108, India",641108,76.91074746,11.0616746,Industrial & Manufacturing & Resources,Wholesale & Distribution,Marble supplier,Open,+91 99943 99999,maheshwarymarbles.com,4.1,19,,People typically spend 15 min to 1 hr here,Mar-25
d649ace7d56a9698b1314e531e59b1cd,Agropark,Kerala,Peppathy,"Agropark Road, Peppathy, Kerala 682313, India",682313,76.45281247,9.88032112,Industrial & Manufacturing & Resources,Agriculture & Forestry,Agricultural service,Open,+91 485 224 2310,keralaagropark.com,3.9,231,,People typically spend 30 min to 1.5 hr here,Mar-25
764b1f15748bd37abb0bcbee12eb39dc,Peenya Industrial Gases Pvt Ltd 4th Phase,Karnataka,Bengaluru,"Ganapathy Nagar, Phase 3, Peenya, Bengaluru, Karnataka 560058, India",560058,77.51431919,13.02209374,Industrial & Manufacturing & Resources,Industrial & Resource Production,Industrial gas supplier,Open 24 hours,+91 80 2836 4357,peenyagas.com,2.9,18,,People typically spend 15 min to 1.5 hr here,Mar-25
bf1f28e41e29e2703984d279628fae7f,"KRISHNA ELECTRICALS/KRISHNA ENTERPRISES....WHOLESALER OF (POLYCAB,GOLDMEDAL,HAVELLS,ANCHOR,RR KABEL,INDOASIAN,FINOLEX) Wire&Cables,Switches,Metal box,Pvc pipes,Lights and all other electrical items DISTRIBUTOR....Gorakhpur, Nepal, Bihar, Lucknow, Azamgarh, Allahabad",Uttar Pradesh,Gorakhpur,"Fatima Hospital By-Pass Rd, Padri Bazar, Hussain Nagar, Gorakhpur, Uttar Pradesh 273001, India",273001,83.40273148,26.78214218,Industrial & Manufacturing & Resources,Wholesale & Distribution,Electrical products wholesaler,Open,+91 73090 35421,bikayi.com,3.9,28,,People typically spend 25 min here,Mar-25
06ba4ee26dbf396df2429d735fb61781,AGARWAL PLASTIC HOUSEHOLD & CLEANING ITEMS,Bihar,Patna,"MAA KANTI UTSAV HALL, Bhupatipur Main Rd, Patna, Bihar 800020, India",800020,85.13144261,25.57874216,Industrial & Manufacturing & Resources,Wholesale & Distribution,Plastic products wholesaler,Open,+91 99310 64692,mybillbook.in,4.9,172,,People typically spend 20 min to 1.5 hr here,Mar-25
627a87428313f2ad362de3525d5fff24,Shree Shiv shakti agro industry,Madhya Pradesh,Narayangarh,"Kanya Shala Road, Narayangarh, Madhya Pradesh 458553, India",458553,75.04980249,24.27235113,Industrial & Manufacturing & Resources,Agriculture & Forestry,Agricultural service,Open 24 hours,+91 88273 55547,shivshaktiagroindustriesnarayangarh.com,4.7,15,,People typically spend 15 min to 1.5 hr here,Mar-25
811dceefe28213f6353c2367e33d378f,Menon Bearings Ltd,Maharashtra,Gokul Shirgaon,"Unnamed Road, MIDC, Gokul Shirgaon, Maharashtra 416234, India",416234,74.2794059,16.64159631,Industrial & Manufacturing & Resources,Industrial & Resource Production,Bearing supplier,Open 24 hours,+91 231 267 2487,menonbearings.in,3.9,8,,People typically spend 20 min to 2.5 hr here,Mar-25
73e3aaf045ac7191bf6ca5562f9d18c3,Jupiter Food Products India Pvt. Ltd.,Uttar Pradesh,"Etah, Choncha Bangaon","C-14, Industrial Estate, Etah, Choncha Bangaon, Uttar Pradesh 207001, India",207001,78.65329223,27.58067171,Industrial & Manufacturing & Resources,Wholesale & Distribution,Food and beverage exporter,Open,+91 5742 233 994,jupiterfoodsindia.com,3.7,31,,People typically spend 15 min to 1 hr here,Mar-25
34553dda2e176f2b9957fe532aa94048,Modest Attires - Best Gifts and Craft Store / Best Abayas Store in Srinagar,Jammu and Kashmir,Srinagar,"Sopori Complex Karra, Lane, near Jk Cooperative Bank, Batamaloo, Srinagar, Jammu and Kashmir 190009",190009,74.79423645,34.07485434,Industrial & Manufacturing & Resources,Wholesale & Distribution,Clothing wholesale market place,Open,+91 97961 11197,modestattires.com,4.5,650,,People typically spend 25 min here,Mar-25
e90d20d6d23c70f2ea9a7546812aff34,Onkar Seeds Pvt.Ltd.,Punjab,Khilchian,"Khadoor Sahib road, Khilchian, Punjab 143111, India",143111,75.17153321,31.54818893,Industrial & Manufacturing & Resources,Wholesale & Distribution,Agricultural product wholesaler,Open,+91 81467 44884,onkarseeds.in,4.3,18,,People typically spend 20 min here,Mar-25
5f0655ec56222811f640c8a6693617a3,OILMAX SYSTEMS PVT. LTD.,Maharashtra,Pune,"Dhayari-Narhe Rd, near CNG Station, opposite Sharvil, Narhe, Pune, Maharashtra 411041, India",411041,73.8205613,18.44860516,Industrial & Manufacturing & Resources,Wholesale & Distribution,Industrial equipment supplier,Open,+91 77760 78885,centrifugaloilcleaner.com,4.5,14,,People typically spend 15 min to 1.5 hr here,Mar-25
408e3b9fc551669d3b7967a13d0be88e,Castle Stone,Kerala,"Kochi, Muvattupuzha","Nr,Chalikkadavu bridge, Muvattupuzha, Kochi, Kerala 686661, India",686661,76.59950333,9.97398167,Industrial & Manufacturing & Resources,Wholesale & Distribution,Stone supplier,Open,+91 96333 66263,facebook.com,4,17,,People typically spend 15 min here,Mar-25
26b74546161fc9934445a4907d955119,Pearl Global Industries Ltd,Tamil Nadu,Melavalam pattam,"Melavalampettai-Thirukkalukundram Rd, Melavalam, Melavalam pattam, Tamil Nadu 603303, India",603303,79.91802933,12.54324027,Industrial & Manufacturing & Resources,Wholesale & Distribution,Garment exporter,Open,+91 124 465 1000,pearlglobal.com,4.4,131,,People typically spend 45 min to 5 hr here,Mar-25
47f4eccad435d2664492ac88cc861b2b,Taro Pumps Factory Store,Tamil Nadu,Coimbatore,"63-B-12/279 G.N. Mills Post Mettupalayam, Road, Coimbatore, Tamil Nadu 641029, India",641029,76.94363128,11.06584451,Industrial & Manufacturing & Resources,Industrial & Resource Production,Water pump supplier,Open,+91 1800 102 8888,taropumps.com,4.8,80,,People typically spend 15-45 min here,Mar-25
98423c49dcb1e0169e28528710904794,PURE AQUA MALL SALES & SERVICE | BEST WATER PURIFIER IN PCMC & PUNE | RO WATER PURIFIER |KENT RO WATER PURIFIER |,Maharashtra,Pimpri-Chinchwad,"Srushti Bldg, Katepuram Chauk,, Gangarde Nagar, Pimple Gurav, Pimpri-Chinchwad, Maharashtra 411061, India",411061,73.81664772,18.58808791,Industrial & Manufacturing & Resources,Utilities & Energy,Water treatment plant,Open,+91 98907 03343,pureaquamall.com,4.6,290,,People typically spend 20 min here,Mar-25
96608da4dc76372279712044caf70ef0,R.K.Exports (KARUR) Pvt Ltd,Tamil Nadu,Karur,"292, Mahatma Gandhi Rd, Vaiyapuri Nagar, Ganesha Nagar, Karur, Tamil Nadu 639002, India",639002,78.06497282,10.96445971,Industrial & Manufacturing & Resources,Wholesale & Distribution,Textile exporter,Open,+91 4324 233 233,rkexports.com,4.5,64,,People typically spend 10-45 min here,Mar-25
aafb6a72a0d15a2a861f3608b3a8497f,Sogo Synergy Private Limited,Karnataka,Bengaluru,"Plot No SW-17B, Apparel Park Phase 2, Doddaballapura industrial area, Bengaluru, Karnataka 561203, India",561203,77.56165067,13.2675409,Industrial & Manufacturing & Resources,Waste & Recycling,Recycling center,Open,+91 1800 102 4780,sogoewaste.com,4.6,16,,People typically spend 15 min to 2 hr here,Mar-25
0d2bbeea9bc8ac4b97d0b74e2b4d874d,SPIRITUAL KINGDOM,Madhya Pradesh,Indore,"SHEETAL APARTMENT, 528, Khatiwala Tank, Indore, Madhya Pradesh 452014, India",452014,75.86104321,22.6983772,Industrial & Manufacturing & Resources,Wholesale & Distribution,Natural stone exporter,Open,+91 78690 59464,spiritualkingdom.in,4.9,177,,People typically spend 20 min to 1 hr here,Mar-25
ce30d1928008b917840c8d25313203bb,S B Indane Gas Distributors,Karnataka,Bengaluru,"Aavalahalli, Bengaluru, Karnataka 560049, India",560049,77.73342034,13.03302269,Industrial & Manufacturing & Resources,Utilities & Energy,Gas cylinders supplier,Open,+91 76191 28276,locator.iocl.com,4.1,290,,People typically spend 25 min here,Mar-25
579f61fc27811c79d190412e2dcd618e,SAMSON INDUSTRIES,Tamil Nadu,Sulur,"143-D, Trichy Rd, Sulur, Tamil Nadu 641402, India",641402,77.10491719,11.0228099,Industrial & Manufacturing & Resources,Industrial & Resource Production,Water pump supplier,Open,+91 422 268 7748,samsonpumps.in,4.6,44,,People typically spend 20 min here,Mar-25
cdadb4898e6722a5b5681ae1c8044742,Livpure Authorised Shop - Nawab Electronics,Punjab,Kathgarh,"Ground Floor Adda, Kathgarh, Punjab 144001, India",144001,76.38157798,31.03798041,Industrial & Manufacturing & Resources,Industrial & Resource Production,Water purification company,Open,+91 98883 03987,store.livpure.com,4.8,100,,People typically spend 20 min here,Mar-25
94cadb5ffde41cd220fabcf4a2b1e04a,OM SALES CORPORATION,Haryana,Gurugram,"khasra no 1945/4, Ridhi sidhi complex, 1946/2, Sheetla Mata Rd, Sanjay Gram Colony, Rajiv Nagar, Sector 12, Gurugram, Haryana 122001, India",122001,77.04135138,28.4799335,Industrial & Manufacturing & Resources,Industrial & Resource Production,Household chemicals supplier,Open,+91 99582 00415,groupom.in,4.8,46,,People typically spend 10-45 min here,Mar-25
cd67a40d44bf581f11ddc5baebab1723,Baba Marbles,Gujarat,"Bill, Vadodara","Sun Pharma Rd, Bill, Vadodara, Gujarat 391410, India",391410,73.13761435,22.26786486,Industrial & Manufacturing & Resources,Wholesale & Distribution,Marble supplier,Open,+91 74339 99922,babamarbles.in,4.5,44,,People typically spend 20 min here,Mar-25
cecf6b6bebc5e8ee978ff6f6053078ae,TT Indane Gas Service,Karnataka,Bengaluru,"5, Puttenahalli Rd, BOB Colony, JP Nagar 7th Phase, J. P. Nagar, Bengaluru, Karnataka 560078, India",560078,77.58160962,12.89548169,Industrial & Manufacturing & Resources,Utilities & Energy,Gas cylinders supplier,Open,+91 98861 38179,locator.iocl.com,3.7,294,,People typically spend 15 min here,Mar-25
b6fcfe4e416d63976b56cf8eeb6cdf28,PixelLEDlights.com,Rajasthan,Raipur,"bhawani mandi road , pratap nagar new colony raipur, Rajasthan 326036, India",326036,76.17273841,24.36080318,Industrial & Manufacturing & Resources,Wholesale & Distribution,Light bulb supplier,Open,+91 77425 39573,pixelledlights.com,4.8,260,,People typically spend 15 min to 1.5 hr here,Mar-25
71e05a77adf614a1f0facbbee0e64416,"Pasupati Agrovet Pvt Ltd, Plant 2",Odisha,Jagatpur,"93(P), Phase III, Jagatpur Industrial Estate, Jagatpur, Odisha 754021, India",754021,85.93673767,20.48779363,Industrial & Manufacturing & Resources,Agriculture & Forestry,Agricultural production,Open,+91 94370 76713,pasupatigroup.com,4.5,15,,People typically spend 20 min to 2 hr here,Mar-25
e7299b013b4251723407a11349de2dfe,Anand Sales,Uttar Pradesh,Kanpur,"no 50, 276, Halsi Rd, Ghantaghar, Badshahi Naka, General Ganj, Kanpur, Uttar Pradesh 208001, India",208001,80.34946128,26.46276955,Industrial & Manufacturing & Resources,Wholesale & Distribution,Wholesaler,Open,+91 80 4604 2412,anandsales.in,2.6,15,,People typically spend 15-45 min here,Mar-25
8997c9345fce8914afde409f6084ecda,Rasi Surgicals,Tamil Nadu,Thoothukudi,"NEAR, 93/1,VANDIMARICHI, Amman Kovil Street, 2nd RAILWAYGATE, Thoothukudi, Tamil Nadu 628002, India",628002,78.1502819,8.80877719,Industrial & Manufacturing & Resources,Wholesale & Distribution,Surgical products wholesaler,Open,+91 98421 59994,rasisurgicals.com,4.8,11,,People typically spend 15 min here,Mar-25
387c729291d8acd95007848d6bb69ba7,Anshika Fasteners Pvt. Ltd.,Maharashtra,"Nagpur, Nildoh ct","216/217, Village Wanadongri, Hingna Rd, Midc, Nagpur, Maharashtra 440016, India",440016,78.9824545,21.10612795,Industrial & Manufacturing & Resources,Industrial & Resource Production,Fastener supplier,Open,+91 97655 50134,anshikafasteners.com,4.2,6,,People typically spend 20 min to 2.5 hr here,Mar-25
24128f9eeeb95dc4a304c3902c79d323,HARRIER ENTERPRISES (Muffle Furnace Up to 1800°C & Vacuum Furnace Manufacturer),Haryana,Faridabad,"Prince, H No 210, I Block, Katan Pahari, Lakkarpur, Shiv Durga Vihar, Faridabad, Haryana 121009, India",121009,77.2999202,28.48290964,Industrial & Manufacturing & Resources,Wholesale & Distribution,Equipment supplier,Open 24 hours,+91 92783 34734,harriergroups.com,4.5,47,,People typically spend 20 min to 1 hr here,Mar-25
25a690c4791210031f6b50b6fe6c14fc,Chemfine enterprise,Gujarat,Vadodara,"128-129 MOHANGIRI KRUPA, opp. Bank of Baroda, Makarpura GIDC, Makarpura, Vadodara, Gujarat 390010, India",390010,73.19265324,22.25902871,Industrial & Manufacturing & Resources,Wholesale & Distribution,Laboratory equipment supplier,Open,+91 95101 50577,indiamart.com,4.8,5,,People typically spend 15-45 min here,Mar-25
1fe94a1e5ad06b28f28c443f98306dd4,B.K. Technologies - APC Online UPS/Quanta Battery/UPS/IT And Power Solution Providers in Lucknow,Uttar Pradesh,Lucknow,"Sec N-1/21, near Bijnaur, Railway Crossing, Ashiyana, Lucknow, Uttar Pradesh 226012, India",226012,80.9189918,26.77547393,Industrial & Manufacturing & Resources,Wholesale & Distribution,Electrical products wholesaler,Open,+91 80522 19777,bktech.in,4.9,1163,,People typically spend 20 min to 1.5 hr here,Mar-25
51f434088a033706f2b26f7cc2e69477,PMS Stones Zirakpur,Punjab,"Adda Jhungian, Zirakpur","Patiala Rd, Adda Jhungian, Zirakpur, Punjab 140603, India",140603,76.79549337,30.62796697,Industrial & Manufacturing & Resources,Wholesale & Distribution,Natural stone wholesaler,Open,+91 94171 01974,facebook.com,4.8,32,,People typically spend 20 min to 1 hr here,Mar-25
37ae215a462a3eba535c469b414291ff,Tecnik Valves Pvt. Ltd.,Maharashtra,Boisar,"W-125, MIDC Rd, Tarapur M.I.D.C., Tarapur, Boisar, Maharashtra 401506, India",401506,72.7430401,19.7843096,Industrial & Manufacturing & Resources,Wholesale & Distribution,Pipe supplier,Open,+91 72080 30920,tecnikvalves.com,4.2,28,,People typically spend 20 min to 3.5 hr here,Mar-25
a0b195fcec2a63b0fea0c280dca8a1d2,Chandra Commercial Private Limited,West Bengal,Kolkata,"46E, Jorabagan Road, 3 No. Ward, Ramgarh Colony, Vidyasagar Colony, Baghajatin Colony, Kolkata, West Bengal 700047, India",700047,88.37086622,22.48117715,Industrial & Manufacturing & Resources,Industrial & Resource Production,Water pump supplier,Open,+91 94331 56263,sites.google.com,4.1,98,,People typically spend 25 min here,Mar-25
e9b853a1737902e1a4c4d33b7c0cef89,Handfab Home,Haryana,"Panipat, Risalu","Plot 269, Sector 29 Part II, Huda, Panipat, Risalu, Haryana 132103, India",132103,77.00039616,29.35975218,Industrial & Manufacturing & Resources,Wholesale & Distribution,Textile exporter,Open,+91 98121 24000,handfabhome.com,4.4,52,,People typically spend 15 min to 1.5 hr here,Mar-25
959c3e0f1e1277ac6c80ec1de8add3a5,CROP LIFE SCIENCE LTD.,Gujarat,Ankleshwar,"Plot No. 5165, 5166/ 5151, Ankleshwar GIDC, Ankleshwar, Gujarat 393002, India",393002,73.03854192,21.61063662,Industrial & Manufacturing & Resources,Agriculture & Forestry,Agrochemicals supplier,Open,+91 85111 62347,croplifescience.com,4.4,14,,People typically spend 15 min to 2 hr here,Mar-25
d5c451597f364d867913f8a3a3fa3751,Kova Fasteners PVT LTD,Punjab,Ludhiana,"B-30 - 1858/2B Phase - IV, Sherpur Kalan, Focal Point, Ludhiana, Punjab 141010, India",141010,75.8966148,30.88888373,Industrial & Manufacturing & Resources,Industrial & Resource Production,Fastener supplier,Open,+91 77400 75011,kova.in,4.6,25,,People typically spend 20 min to 2 hr here,Mar-25
d78c582fa2089072fe53e6f883155f7a,SANGAMITRA SEEDS CORPORATIONS,Telangana,Karimnagar,"Padma Nagar, Ramnagar, Karimnagar, Telangana 505001, India",505001,79.10373064,18.43792314,Industrial & Manufacturing & Resources,Agriculture & Forestry,Agricultural production,Open 24 hours,+91 98663 02655,godaddysites.com,4.2,10,,People typically spend 15 min to 1 hr here,Mar-25
a6d0a051b5e4593823a8cfa7028bb3e5,Agrima Enterprises,Karnataka,Bengaluru,"G1 iris, Puttanahalli, Bengaluru, Karnataka 560064, India",560064,77.57971752,13.10762153,Industrial & Manufacturing & Resources,Wholesale & Distribution,Handicrafts wholesaler,Open 24 hours,+91 98993 30701,meesho.com,3.9,289,,People typically spend 15 min to 1.5 hr here,Mar-25
4a7c95866137720f754a229c6087c4be,Kalsi Metal Works Private Limited,Punjab,Jalandhar,"Kapurthala Rd, Basti Bawa Khel, Jalandhar, Punjab 144021, India",144021,75.53217675,31.33878662,Industrial & Manufacturing & Resources,Industrial & Resource Production,Water pump supplier,Open,+91 181 265 1703,kalsigroup.com,4.2,42,,People typically spend 15 min to 1.5 hr here,Mar-25
0a4c0a23a2bbedeb2b0bac2fbef0c094,Rotimation Mahij Exim Pvt Ltd,Gujarat,Bhavnagar,"Plot no. 53, VISHWAKARMA INDUSTRIAL ESTATE, Chitra Gujarat Industrial Development Corporation, Bhavnagar, Gujarat 364004, India",364004,72.08679592,21.75947743,Industrial & Manufacturing & Resources,Industrial & Resource Production,Food machinery supplier,Open,+91 77778 02802,rotimation.in,4.6,155,,People typically spend 15-45 min here,Mar-25
29c91d2c54c939480731f9cf866eacc4,Areca Embedded Systems Private Limited,Telangana,Secunderabad,"#5B, Survey No 184 & 185, IDA, Phase-V, Cherlapalli, Secunderabad, Telangana 500051, India",500051,78.59641631,17.45746538,Industrial & Manufacturing & Resources,Industrial & Resource Production,Railroad equipment supplier,Open,+91 40 2726 3366,areca.in,4,25,,People typically spend 15 min to 2 hr here,Mar-25
a6230e2f7e5da1724761cbd1fb44deff,Crown Rubber Works,Maharashtra,Navi Mumbai,"W-10, TTC Industrial Area, MIDC Industrial Area, Pawne, Navi Mumbai, Maharashtra 400705, India",400705,73.03053388,19.09243375,Industrial & Manufacturing & Resources,Industrial & Resource Production,Rubber products supplier,Open,+91 77381 14471,crown-rubber.com,4.5,49,,People typically spend 15-45 min here,Mar-25
4f9e612586db6bd236936cc5296e4538,Saini Mines & Marbles,Punjab,Ludhiana,"Street No.18, Grand Trunk Rd, Near Basti Jodhewal Chowk, New Madhopuri, Sunder Nagar, Ludhiana, Punjab 141008, India",141008,75.87368483,30.92386645,Industrial & Manufacturing & Resources,Wholesale & Distribution,Marble supplier,Open,+91 98144 16151,sainimarbles.com,4.1,9,,People typically spend 20 min here,Mar-25
9d828809ec4680846061be9ab58a9d29,System Engineers Cutting & Welding Private Limited,Haryana,Faridabad,"Plot No. 24, Sector-59, Pragati Vihar, Haryana 121004, India",121004,77.30610521,28.30246821,Industrial & Manufacturing & Resources,Wholesale & Distribution,Industrial equipment supplier,Open,+91 85869 27394,systemengineers.co.in,4.8,21,,People typically spend 20 min to 2 hr here,Mar-25
2ac52f0180fe96c4eb958f61f45447de,SAMRAJ ENGINEERING CONTROL (Pvt) LTD,Tamil Nadu,Vallakkottai,"Vallakkottai, Tamil Nadu 602105, India",602105,79.91674566,12.8726772,Industrial & Manufacturing & Resources,Wholesale & Distribution,Industrial equipment supplier,Open,+91 94426 28601,samrajmetalfabricators.com,4.3,62,,People typically spend 15 min to 1.5 hr here,Mar-25
dc67b3c364c99229bcb4b243cf49a2ff,Deepak Sales and Services - BPCL Petrol Pump,Karnataka,Mangaluru,"West Coast NH 66 Opp Industrial Area Baikampady Panambur, New, Mangaluru, Karnataka 575010, India",575010,74.81037962,12.94909933,Industrial & Manufacturing & Resources,Utilities & Energy,Fuel supplier,Open 24 hours,+91 82173 14627,bharatpetroleum.in,4.3,83,,People typically spend 15 min here,Mar-25
01bc64a063ea622f7570da9131532918,KENT RO SYSTEMS LIMITED,Uttar Pradesh,Noida,"Block A, Sector 87, Noida, Uttar Pradesh 201305, India",201305,77.42008153,28.53093173,Industrial & Manufacturing & Resources,Wholesale & Distribution,Water filter supplier,Open,+91 1800 100 1000,kent.co.in,4.3,128,,People typically spend 20 min to 2 hr here,Mar-25
7671930fad5b16d9c2372c5df72c76a7,Yojak Foods and Beverages Pvt. Ltd.,Maharashtra,Ratnagiri,"Yojak Kokan Meva, Khalchi Aali, Pethkilla, Ratnagiri, Maharashtra 415612, India",415612,73.28760784,16.99580917,Industrial & Manufacturing & Resources,Wholesale & Distribution,Food products supplier,Open,+91 94047 71771,eyojak.com,4.3,105,,People typically spend 15 min to 1 hr here,Mar-25
cf48246bd7174ab837fd3a22a8a9b635,Jupiter Knitting Company,Tamil Nadu,"Tiruppur, A.Thirumuruganpoondi","1, J-33, Jupiter Thottam Road, Thaneerpanthal, Anupparpalayam Pudur, Tiruppur, A.Thirumuruganpoondi, Tamil Nadu 641652, India",641652,77.31838592,11.15303325,Industrial & Manufacturing & Resources,Wholesale & Distribution,Textile exporter,Open,+91 421 398 3999,jupiter-india.com,3.9,121,,People typically spend 20 min to 2 hr here,Mar-25
be928564c29c79dd2bd3a5da23ae2dbd,Tirupur Knitwears Exports,Tamil Nadu,"Avinashi, Tiruppur","2/224-1 Askar Thottam PeriyakarunaPalayam Ummanchettipalayam Road, Tiruppur - Vanjipalayam - Avinashi Rd, off Avinashi, near by Grand Bakes, Taluk, Avinashi, Tiruppur, Tamil Nadu 641654, India",641654,77.27207089,11.16516545,Industrial & Manufacturing & Resources,Wholesale & Distribution,Garment exporter,Open,+91 73394 43434,tirupurknitwears.com,4.5,218,,People typically spend 15 min to 1.5 hr here,Mar-25
46e1efff4e5bcde00039370b03222bb4,Globus Clothing Company,Tamil Nadu,Tiruppur,"Sri Sakthi Nagar, Aathupalayam, Thirumurugan Poondi, Sakthi Nagar, Tiruppur, Tamil Nadu 641602, India",641602,77.32724253,11.15757819,Industrial & Manufacturing & Resources,Wholesale & Distribution,Garment exporter,Open,+91 98432 29999,globus-india.com,4,66,,People typically spend 20 min to 2.5 hr here,Mar-25
426eaaedc5c5fe124b0558d77b35764c,KAVIN TRADERS - Frozen Foods & Dairy Products,Tamil Nadu,Chennai,"No.G/A. 140, Food Grains Market, Koyambedu, Tamil Nadu 600107, India",600107,80.19389294,13.07018367,Industrial & Manufacturing & Resources,Wholesale & Distribution,Food products supplier,Open,+91 98420 45460,wa.me,4.9,16,,People typically spend 20 min here,Mar-25
a278852924f821f2b8db45f726fdf056,Phukuli Home Utility Products Pvt Ltd,Haryana,Faridabad,"Shop no-1&2, Bhadana Shopping Complex, Tigaon Road, Opposite Goyal & Sons, Sector 86, Faridabad, Haryana 121002, India",121002,77.34625827,28.4043602,Industrial & Manufacturing & Resources,Wholesale & Distribution,Household goods wholesaler,Open,+91 78400 01162,phukuli.com,4.6,133,,People typically spend 25 min here,Mar-25
723e3d1f60c579ab527b58782a47c316,Mahesh Namkeen Private Limited,Uttar Pradesh,Lucknow,"B-16 Amausi Industrial Area, Nadarganj, Lucknow, Uttar Pradesh 226008, India",226008,80.86858974,26.76929647,Industrial & Manufacturing & Resources,Wholesale & Distribution,Food products supplier,Open,+91 95805 90590,maheshnamkeen.com,4.3,131,,People typically spend 15 min to 1 hr here,Mar-25
0ebb2a7070441387e3b4b0b112ec9d49,Technovision Engineers Pvt. Ltd,Maharashtra,"Pune, Vitthal Nagar","412114., Gat No. 1559-1560, Dehu Alandi Road, Shelarvasti, Chikhali, Pune, Maharashtra 412114, India",412114,73.8003285,18.69466042,Industrial & Manufacturing & Resources,Wholesale & Distribution,Industrial equipment supplier,Open,+91 77740 20056,technovisionengrs.co.in,4,112,,People typically spend 20 min to 2 hr here,Mar-25
49b46744327a4869a4b13edfa4d8157b,Hitesh Plastic Pvt Ltd,Maharashtra,Jalgaon,"J- 59, BPCL Rd, behind Lokmat Press, MIDC, Jalgaon, Maharashtra 425003, India",425003,75.58954418,20.99069038,Industrial & Manufacturing & Resources,Wholesale & Distribution,Factory equipment supplier,Open 24 hours,+91 22 2686 1782,hiteshplastics.com,3.4,7,,People typically spend 20 min to 2.5 hr here,Mar-25
fb0fad29916793d071d538cc5cb8ef61,KHELAGHAR ( EGRA ),West Bengal,Egra,"Haripur Rd, near EGRA, Buran, Egra, West Bengal 721429, India",721429,87.53688178,21.89777416,Industrial & Manufacturing & Resources,Wholesale & Distribution,Sports accessories wholesaler,Open,+91 89675 45556,khela-ghar-egra.business.site,4.8,43,,People typically spend 15-45 min here,Mar-25
07cf33fb9a4d52efddfbb0d3367bf8d3,Dynamic Hydraulics,Maharashtra,Shiroli,"S. No. 527, Shiye - Bawada Rd, opposite MIDC, MIDC, Shiroli, Maharashtra 416122, India",416122,74.27278626,16.77357141,Industrial & Manufacturing & Resources,Industrial & Resource Production,Hydraulic equipment supplier,Open,+91 91728 39607,dynamichydraulics.co.in,4.7,15,,People typically spend 15 min to 1 hr here,Mar-25
e66a3af04baaa7bda28d93728c31dce3,ARW Steels traders,Tamil Nadu,Salem,"105, Suramangalam Main Rd, Membala Nagar, Swaminathapuram, Salem, Tamil Nadu 636009, India",636009,78.13240827,11.66329112,Industrial & Manufacturing & Resources,Wholesale & Distribution,Iron ware dealer,Open,+91 88380 34437,arwsteeltraders.com,4.3,26,,People typically spend 15-45 min here,Mar-25
e5ab4690383b46a9d6cf76aa3fa50610,C R Garments,Tamil Nadu,Tiruppur,"330/1, Sri Gokula Krishna Nagar Tkt Mills, Palladam Road, Tiruppur - Palladam Rd, Tiruppur, Tamil Nadu 641605, India",641605,77.3355352,11.05967651,Industrial & Manufacturing & Resources,Wholesale & Distribution,Garment exporter,Open,+91 421 221 0673,crgarments.com,4.3,134,,People typically spend 15 min to 2 hr here,Mar-25
c6b5d2b73b4b63404384460fa7fa523a,Green99,Bihar,"Patna, Chhatna","Amrawati mension, Jhaichak, Parsa bazar, Patna, Bihar 804453, India",804453,85.13445446,25.53736248,Industrial & Manufacturing & Resources,Wholesale & Distribution,Wholesaler household appliances,Open,+91 85210 90744,green99.in,4.5,73,,People typically spend 20 min to 2 hr here,Mar-25
09670256a6f0d4c26a5e80a7a92995de,"HJ Enterprise - Hand Tools,Garage Tools, Power Tools, Industrial Tools Equipment in Gujarat",Gujarat,Surat,"Shop No 2, Pal Shopping Center, SVP, Rd Number 4, Udhana GIDC, Udhna Udhyog Nagar, Udhana, Surat, Gujarat 394210, India",394210,72.84746892,21.17095758,Industrial & Manufacturing & Resources,Wholesale & Distribution,Industrial spares and products wholesaler,Open,+91 261 227 9900,harshtools.com,4.8,219,,People typically spend 15 min here,Mar-25
f9bc2ff11c670d3337a29c910b624dfc,Krishna Steel Traders,Gujarat,Vadodara,"366/1, opposite Shajanand Arcade, Makarpura GIDC, Makarpura, Vadodara, Gujarat 390010, India",390010,73.18511537,22.25307286,Industrial & Manufacturing & Resources,Industrial & Resource Production,Iron and steel store,Open,+91 94266 51570,krishnasteel.in,4,42,,People typically spend 20 min here,Mar-25
3735ea22cc703c488c624bc543447af7,ARUN FARMS & NURSERY,Karnataka,"Hoskote, Bengaluru","NH 75, HOSKOTE TO KOLAR HIGHWAY GOTTIPURE VILLAGE JADIGENAHALLI, HOBIL, Hoskote, Bengaluru, Karnataka 562114, India",562114,77.84318523,13.09342489,Industrial & Manufacturing & Resources,Wholesale & Distribution,Wholesale plant nursery,Open,+91 96861 36154,arunnursery.com,4.2,649,,People typically spend 20-45 min here,Mar-25
ec362787c56b4383c4febda88d96d9c3,Bharat Gas,Telangana,Secunderabad,"6-3-355/2, Building No.50, New Bhoiguda, Secunderabad, Telangana 500003, India",500003,78.50183292,17.42706085,Industrial & Manufacturing & Resources,Utilities & Energy,Gas cylinders supplier,Open 24 hours,+91 1800 22 4344,bharatpetroleum.com,3.4,76,,People typically spend 20 min to 1 hr here,Mar-25
d880c22d19cd3ee73c15ea9ecb9c9fc2,Nevedha Knitts,Tamil Nadu,Tiruppur,"Nevedha Knitts SF No 294, Kangayam Rd, Tiruppur, Tamil Nadu 641606, India",641606,77.41193493,11.09762969,Industrial & Manufacturing & Resources,Wholesale & Distribution,Garment exporter,Open,+91 421 298 0203,nevedha.com,3.9,115,,People typically spend 20 min to 2 hr here,Mar-25
3d4191dea38a21feb8d7d9b67ba05cc4,KR Fuels - Auto LPG Station - Neelambur,Tamil Nadu,Coimbatore,"Sivan Auto Gas SF.No.: 514 / B, Neelambur Village Sulur, Taluk, Coimbatore, Tamil Nadu 641402, India",641402,77.10970778,11.06746961,Industrial & Manufacturing & Resources,Utilities & Energy,Fuel supplier,Open 24 hours,+91 95855 86667,krfuels.com,4.2,59,,People typically spend 10 min here,Mar-25
eaac2f3cdf2978c33023c456035e29d1,Trichy AMK,Tamil Nadu,Tiruchirappalli,"160, Kumaran Rd, Sangliandapuram, Sangillyandapuram, Tiruchirappalli, Tamil Nadu 620001, India",620001,78.70743035,10.79737976,Industrial & Manufacturing & Resources,Wholesale & Distribution,Pipes wholesaler,Open,+91 90033 60393,trichyamk.com,4.8,99,,People typically spend 20 min to 1.5 hr here,Mar-25
077b797a8e626c83d786c84e0fa3c703,Heritage India Exports Pvt. Ltd.,Delhi,Delhi,"327, Burari Rd, Conductor Colony, Burari, Delhi, 110084, India",110084,77.19880524,28.75339665,Industrial & Manufacturing & Resources,Wholesale & Distribution,Textile exporter,Open,+91 11 4108 2575,heritage-exports.com,4.5,60,,People typically spend 20 min to 2.5 hr here,Mar-25
97923857c20eff37d18e344a854752d6,Raj Garden Plants - Flower Plants | Garden Store | Plant Nursery | Gift Plants | Herbal Plants,Rajasthan,Jodhpur,"RAJ GARDEN PLANTS, PLOT NO 54, J Block, Sector 7, Jodhpur, Rajasthan 342005, India",342005,73.0333501,26.2135326,Industrial & Manufacturing & Resources,Wholesale & Distribution,Wholesale plant nursery,Open,+91 77370 00498,rajgardenplants.com,4.5,35,,People typically spend 15 min to 1 hr here,Mar-25
f19ca8d55fec071fa58aa6e31f408bd0,JJ Idea Pasumai Bhoomi Bio Organic Research Centre Pvt Ltd- Coconut Seedling/Organic Fertilizer,Tamil Nadu,Peravurani,"Old Peravurani, Aranthangi Road, Taluk, opposite to police station, Peravurani, Tamil Nadu 614804, India",614804,79.19182688,10.28141057,Industrial & Manufacturing & Resources,Wholesale & Distribution,Wholesale plant nursery,Open,+91 73730 38386,jjideapasumaibhoomi.com,4.8,249,,People typically spend 15 min to 1 hr here,Mar-25
cc9b66a6ba084cf3ca2e972e1799c719,Bengal Shoe Machinery Pvt Ltd,Delhi,Delhi,"Metro station, Rohtak - Delhi Rd, opp. Metro Pilar No. 583, near Mundka Industrial Area, Mundka Industrial Area, Mundka, Delhi, 110041, India",110041,77.01271966,28.68348033,Industrial & Manufacturing & Resources,Wholesale & Distribution,Industrial equipment supplier,Open,+91 93104 23242,bsmindia.com,4.9,606,,People typically spend 25 min to 1.5 hr here,Mar-25
6e5a5ce968c1817825e2013afd4dc832,Joystick Bio Health - Biocool,Gujarat,Vapi,"Shop No. 112/113, Govinda Complex, char rasta, Mahavir Nagar, GIDC, Vapi, Gujarat 396195, India",396195,72.92136757,20.36610631,Industrial & Manufacturing & Resources,Wholesale & Distribution,Water filter supplier,Open,+91 99740 52192,joystickbiohealth.com,3.8,927,,People typically spend 10-45 min here,Mar-25
5edcc2fee6f73ac1dfcf2866bfe4d0ce,Maharashtra gas company,Maharashtra,Mumbai,"off shuklaji street, Dalal Estate, Kamathipura, Mumbai, Maharashtra 400008, India",400008,72.82529152,18.96418482,Industrial & Manufacturing & Resources,Industrial & Resource Production,Industrial gas supplier,Open 24 hours,+91 98337 80675,maharashtragas.com,4.3,42,,People typically spend 15-45 min here,Mar-25
f21bc260427dbb49062328f2484c61bd,V.M. & Sons Silver Art,Gujarat,Rajkot,"Shree Ranchhodnagar, Corner, Street No. 7, near Patelwadi, Rajkot, Gujarat 360003, India",360003,70.81461852,22.30128844,Industrial & Manufacturing & Resources,Wholesale & Distribution,Wholesale jeweler,Open,+91 94094 43265,instagram.com,4.9,29,,People typically spend 15-45 min here,Mar-25
fb6fccb548da4bdcf559966f625cb6e5,Stallion Onebyte Pvt Ltd,Kerala,"Kochi, Ernakulam","Stallion House Paadam Stop, KP Vallon Rd, Nethaji Nagar, Kadavanthra, Kochi, Ernakulam, Kerala 682020, India",682020,76.30394932,9.95676994,Industrial & Manufacturing & Resources,Wholesale & Distribution,Printing equipment and supplies,Open,+91 98467 78500,stallionglobal.com,4.4,99,,People typically spend 15 min to 1 hr here,Mar-25
f9d54d49bf446970a12b3560c3711773,Shri Bhagavati Bright Bars Limited,Gujarat,Rajkot,"Street No. 9, Atika Industrial Area, Patel Chowk, Rajkot, Gujarat 360002, India",360002,70.80398375,22.26728287,Industrial & Manufacturing & Resources,Industrial & Resource Production,Iron and steel store,Open,+91 99099 60996,sbbbl.com,4.1,113,,People typically spend 10-45 min here,Mar-25
bc5f6ccedcd3ec947d32a908658c90e5,BAD BOYS CLOTHING,Madhya Pradesh,Indore,"Half-Ticket Apparels (MASHUP SHIRTS) 192 Ready-Made Garment Complex, Pardesipura, Indore, Madhya Pradesh 452010, India",452010,75.86771324,22.74935036,Industrial & Manufacturing & Resources,Wholesale & Distribution,Clothing supplier,Open,+91 76972 88888,badboysclothing.com,4.9,14,,People typically spend 15 min to 1.5 hr here,Mar-25
06d462f852ba40a356806583a9da9ef3,8m lights,Delhi,Delhi,"Metro Station, 631/2, near East Azad Nagar, East Azad Nagar, Kanti Nagar South, Seelampur, Shahdara, Delhi, 110051, India",110051,77.28370477,28.66531369,Industrial & Manufacturing & Resources,Wholesale & Distribution,Electronics accessories wholesaler,Open,+91 90730 00888,8mlights.com,4.1,90,,People typically spend 15 min to 1 hr here,Mar-25
15d5630f9012df266c99edf106a2d6f0,Energica Solar - One Stop Solution for Solar Needs,Maharashtra,Pune,"Sr. No. 15/20/21-B, Vighnaharta Heritage, Shop No. 1 to, 4, Ambegaon Budruk, Pune, Maharashtra 411046, India",411046,73.83794142,18.45725434,Industrial & Manufacturing & Resources,Wholesale & Distribution,Solar energy equipment supplier,Open,+91 90118 18283,energicasolutions.com,5,87,,People typically spend 15-45 min here,Mar-25
a1aeb38bd9e9371b96bc9c854967ccc4,PIPES INDIA,Kerala,Veliyathunadu,"near Thandirikkal bus stop, Veliyathunadu, Kerala 683511, India",683511,76.31204994,10.13903484,Industrial & Manufacturing & Resources,Wholesale & Distribution,Pipes wholesaler,Open,+91 89433 90000,nigroup.biz,4.1,75,,People typically spend 15 min to 1 hr here,Mar-25
ad65cf10538e54e0bcfa4da2eafbbafd,Shri Lalshah Papers Private Limited,Gujarat,Ahmedabad,"Paper Market, 645, Nawa Darwaja Rd, Old City, Tankshal, Khadia, Ahmedabad, Gujarat 380001, India",380001,72.59513459,23.02523672,Industrial & Manufacturing & Resources,Wholesale & Distribution,Paper distributor,Open,+91 79 2217 0209,lalshah.com,4.2,247,,People typically spend 20 min here,Mar-25
fb32728b1cfc7d935ac741486be64e77,e Mandi Rates,Rajasthan,Hanumangarh,"Dhan Mandi, Hanumangarh, Rajasthan 335512, India",335512,74.28468656,29.61776154,Industrial & Manufacturing & Resources,Agriculture & Forestry,Agricultural service,Open,+91 63506 44300,emandirates.com,4.6,31,,People typically spend 10 min to 1 hr here,Mar-25
a5790051d39a2f5ece97f74b488f7222,Kerafed Coconut Complex,Kerala,"Calicut, Mannankavu","Naduvannur Muthambi Road, Calicut, Mannankavu, Kerala 673614, India",673614,75.74281776,11.48200276,Industrial & Manufacturing & Resources,Agriculture & Forestry,Agricultural service,Open,+91 496 265 3675,kerafed.com,4,76,,People typically spend 20 min to 2.5 hr here,Mar-25
aafd0f6ae5fb62200e5b4d8c5759a8e0,Havells Galaxy - Satya Trading Co.,Haryana,Hisar,"23-24, Bishnoi Mandir Market, Radha Bazar, Mehta Nagar, Hisar, Haryana 125001, India",125001,75.72302822,29.16077332,Industrial & Manufacturing & Resources,Wholesale & Distribution,Electrical equipment supplier,Open,+91 94669 63179,havells.com,3.9,199,,People typically spend 15-45 min here,Mar-25
77a6dc58a34af3bfbcf67f6ba92f46b1,SRI NATIONAL JEWELLERS,Andhra Pradesh,Nellore,"D-No: 14/85/2, Kapu St, beside Flour Mill, opp. Jain Bhavan, VRC Centre, Ramji Nagar, Nellore, Andhra Pradesh 524001, India",524001,79.98174128,14.45452448,Industrial & Manufacturing & Resources,Wholesale & Distribution,Wholesale jeweler,Open,+91 90078 24999,srinationaljewellers.in,4.5,309,,People typically spend 15-45 min here,Mar-25
8b7e05e0143487684ae544a7ef02e8f5,YarnKart,Karnataka,Bengaluru,"3rd Main Rd, MSHC Layout, Anandnagar, Hebbal, Bengaluru, Karnataka 560024, India",560024,77.59148688,13.03037054,Industrial & Manufacturing & Resources,Wholesale & Distribution,Threads and yarns wholesaler,Open,+91 99450 60341,yarnkart.com,4.8,328,,People typically spend 20 min to 1 hr here,Mar-25
ca64cb5d7f5dff08f47a24afcc7d75ef,M S Raja and Co,Tamil Nadu,Coimbatore,"no 56, 57, Kaleeswara Mill Rd, Kattoor, Anupperpalayam, Ram Nagar, Coimbatore, Tamil Nadu 641009, India",641009,76.96460618,11.00444595,Industrial & Manufacturing & Resources,Wholesale & Distribution,Pipe supplier,Open,+91 422 223 0888,msraja.in,4.4,65,,People typically spend 15-45 min here,Mar-25
45a1759e7b4095b410ebee4eb58dcf81,DHRONI AYURVEDAS,Kerala,"Velloorkunnam, Muvattupuzha","Mudavoor PO Vazhapilly, Velloorkunnam, Muvattupuzha, Kerala 686669, India",686669,76.56164053,9.99771574,Industrial & Manufacturing & Resources,Wholesale & Distribution,Equipment supplier,Open,+91 94477 42281,dhroni.com,4.2,133,,People typically spend 15 min to 1.5 hr here,Mar-25
87419679f96cda0b03835c4b547a5ff9,"Radhika Alloys - Die steel D2 D3 , HOT DIE STEEL H-13 DB-6 , P20 , C-45 , EN31 , MS , EN-24 , EN-353 , EN-8",Haryana,Gurugram,"Nahar Pur Rupa, N.H-8, Gurugram, Haryana 122001, India",122001,77.01818712,28.44270975,Industrial & Manufacturing & Resources,Industrial & Resource Production,Iron and steel store,Open,+91 98734 16934,radhikaalloys.com,4.8,23,,People typically spend 20 min to 1 hr here,Mar-25
9f2ee1dcda7adef34123d1c619a12fc5,Eeki (Head Office),Rajasthan,"Girdhapura, Kota","Khasra No. 178 - Girdharpura, Kunadi, Choraha, Girdhapura, Kota, Rajasthan 324008, India",324008,75.82996549,25.2174455,Industrial & Manufacturing & Resources,Agriculture & Forestry,Agricultural production,Open,+91 80008 04148,eeki.com,4.6,75,,People typically spend 10-45 min here,Mar-25
4b08168bb505088bbd2f3f7237b1fa18,Sri Sai Nursery Garden,Tamil Nadu,Chennai,"Plot 25, Krishna Nagar, 649, Dr Ambedkar Salai, Medavakkam, Chennai, Tamil Nadu 600100, India",600100,80.19679557,12.90659664,Industrial & Manufacturing & Resources,Wholesale & Distribution,Wholesale plant nursery,Open,+91 90949 72510,srisainurserygarden.com,4.6,152,,People typically spend 25 min here,Mar-25
aade04c7bfb4a475478ac5d678b91aa7,BN Enterprises,Delhi,"New Delhi, Delhi","30-E, Patparganj, Village, New Delhi, Delhi 110091, India",110091,77.28978671,28.6119897,Industrial & Manufacturing & Resources,Wholesale & Distribution,Leather exporter,Open,+91 11 2275 1572,bnhouse.co.in,4.2,28,,People typically spend 20 min to 1.5 hr here,Mar-25
156cd7ae6449f35a4cf9db756ce9071f,HINDUSTAN HYDRAULICS,Tamil Nadu,Chennai,"New No : 265, Old No :127, Thambu Chetty St, Parrys, Chennai, Tamil Nadu 600001, India",600001,80.28894925,13.09239912,Industrial & Manufacturing & Resources,Industrial & Resource Production,Hydraulic equipment supplier,Open,+91 98409 21885,hindustanhydraulic.com,4.2,11,,People typically spend 25 min to 1.5 hr here,Mar-25
a0e79992906c5e54b9b91765ecc5cb24,RAJAGURU SPINNING MILLS P LTD UNIT - 2,Tamil Nadu,Pallipalayam,"Sf No 97, 2, Mampalayam Rd, Vediyarasampalayam, Pallipalayam, Tamil Nadu 638008, India",638008,77.75118316,11.38290435,Industrial & Manufacturing & Resources,Wholesale & Distribution,Textile exporter,Open,+91 98940 33333,rajaguruspinningmills.com,4.3,39,,People typically spend 15 min to 2.5 hr here,Mar-25
eea06f264c93ff193a02424001310945,BHOOMI TRADERS,Uttar Pradesh,Aligarh,"Village- Nandpur Pala Pachpeda to Andla link road Rayat Pala mod, near Hanuman temple, Aligarh, Uttar Pradesh 202140, India",202140,77.96621747,27.9547575,Industrial & Manufacturing & Resources,Agriculture & Forestry,Agricultural service,Open,+91 97198 08638,business.google.com,4,2,,People typically spend 20 min here,Mar-25
1c720e1c84b533a8a4f05f6bed190a83,Tech7 Automation Systems India Pvt Ltd,Tamil Nadu,Coimbatore,"SF No: 106/1, Palathurai Road, Madukkarai, Coimbatore, Tamil Nadu 641105, India",641105,76.9727162,10.89233723,Industrial & Manufacturing & Resources,Wholesale & Distribution,Electrical equipment supplier,Open,+91 94422 26241,tech7automation.com,4.7,172,,People typically spend 20 min to 2 hr here,Mar-25
41e6dcf48024186dd4c965142fdc99be,Padmatech Industries Pvt Ltd - Unit - II,Maharashtra,"Pune, Pimpri-Chinchwad","Plot No. 239. Sector No. 07, PCNTDA, Bhosari, Pune, Maharashtra 411026, India",411026,73.83866457,18.64131948,Industrial & Manufacturing & Resources,Wholesale & Distribution,Industrial equipment supplier,Open,+91 91461 40044,padmatechindustries.com,4.6,24,,People typically spend 15 min to 1.5 hr here,Mar-25
371b9e8f09e89c8a1b5484661baf3ae3,Parmanand Industries,Gujarat,Vadodara,"21/6, Gidc Estate, Makarpura, Vadodara, Gujarat 390010, India",390010,73.19321273,22.2568535,Industrial & Manufacturing & Resources,Industrial & Resource Production,Molding supplier,Open,+91 265 263 8098,parmanand.in,4.8,31,,People typically spend 15 min to 1 hr here,Mar-25
ea2014f5a1be71d0b27c9dc65ec319d4,Rama Iron - N - Steels,Karnataka,Bengaluru,"# 48/3, Off, Hosur Rd, near TVS Godown, Bengaluru, Karnataka 560068, India",560068,77.64593172,12.89043222,Industrial & Manufacturing & Resources,Industrial & Resource Production,Iron and steel store,Open,+91 99457 53005,ramairon.in,4.9,69,,People typically spend 15 min to 1 hr here,Mar-25
fe64b7cf39fa4caaed7347e8f7d7e58b,S P Textile Processors Pvt Ltd,Tamil Nadu,Chithode,"S.F No 54/2B, Kumilam Parappu, Perumal Malai Kovil Road, near Aavin Diary, Chithode, Tamil Nadu 638102, India",638102,77.67105437,11.40531692,Industrial & Manufacturing & Resources,Wholesale & Distribution,Textile exporter,Open,+91 97900 97979,spmills.com,4.2,69,,People typically spend 20 min to 2 hr here,Mar-25
cfecd565380c4a758d7587f61c79d12b,BIMETAL BEARINGS LTD- Bearing Division,Tamil Nadu,Hosur,"Hosur - Krishnagiri Road, NH 7, Perandapalli, Hosur, Tamil Nadu 635125, India",635125,77.89138953,12.70975527,Industrial & Manufacturing & Resources,Industrial & Resource Production,Bearing supplier,Open,+91 4344 260 251,bimite.co.in,4,175,,People typically spend 15 min to 1 hr here,Mar-25
540a402dcc89be1a43d09525fbabc30a,HB Industries Unit II,Punjab,Jalandhar,"p o, Raowali, Jalandhar, Punjab 144009, India",144009,75.60227436,31.37650853,Industrial & Manufacturing & Resources,Wholesale & Distribution,Pipe supplier,Open,+91 98724 00048,hbgroup.in,4.1,35,,People typically spend 15 min to 2.5 hr here,Mar-25
c1edff7436fb009afff78bd79287f81b,RAM RO TECHNOLOGY,Tamil Nadu,Chennai,"Ambattur, No.11/40, Kavery St, near MUTHUMARI AMMAN TEMPLE, Athipet, Ambattur Industrial Estate, Chennai, Tamil Nadu 600058, India",600058,80.15460338,13.09262676,Industrial & Manufacturing & Resources,Utilities & Energy,Water treatment plant,Open,+91 89395 07755,ramrotechnology.org.in,4.6,50,,People typically spend 10-45 min here,Mar-25
06a0682344d62ccc71b0359d13656417,Alleima India Private Limited,Tamil Nadu,Hosur,"Plot No.49 & 49B, Sipcot Phase 1, Krisnagiri, Hosur, Tamil Nadu 635126, India",635126,77.81193511,12.75385471,Industrial & Manufacturing & Resources,Wholesale & Distribution,Industrial spares and products wholesaler,Open,+91 4344 403 515,kanthal.com,4,30,,People typically spend 15 min to 2 hr here,Mar-25
5bc9656acd2c964dc3de1ac81061222b,Bhumi Polymers Pvt. Ltd.,Gujarat,Veraval,"Plot No. 34,35 ,11/B, Survey No.236, Krishna Ind. Area, N.H.8B, Behind Hotel Pitrukrupa, City (Shapar), Ta- Kotda Sangani,, Veraval, Gujarat 360024, India",360024,70.80062262,22.16326222,Industrial & Manufacturing & Resources,Industrial & Resource Production,Polymer supplier,Open,+91 2827 253 693,bhumipolymers.com,4.4,84,,People typically spend 15 min to 1.5 hr here,Mar-25
687f33ba2393abc54fe396392e807dec,Aditya Enterprises paper cup machine,Uttar Pradesh,"Lucknow, Naubasta Kala","Naubasta Kala, Deva Rd, near Matiyari, Chinhat, Lucknow, Uttar Pradesh 226028, India",226028,81.0313088,26.91024443,Industrial & Manufacturing & Resources,Industrial & Resource Production,Machine shop,Open,+91 80 4603 3021,adityagroupofcompanies.com,4.5,35,,People typically spend 15 min to 1 hr here,Mar-25
be09f48c5d977eb0a04dac60953df534,Kozhikode City Police Employees Co-operative Society Ltd.,Kerala,Kozhikode,"Pavamani Rd, Palayam, Kozhikode, Kerala 673004, India",673004,75.78321717,11.25461872,Industrial & Manufacturing & Resources,Wholesale & Distribution,Police supply store,Open,+91 495 272 5421,kkdcitypecs.com,4.6,50,,People typically spend 15-45 min here,Mar-25
e7db961940df44f322979a4e2e2301d4,Cotton Park Clothings,Tamil Nadu,Tiruppur,"10/297D, ulageshwara nagar,Chennimalaipalayam, Ganapathipalayam Rd, Veerapandi, Tiruppur, Tamil Nadu 641605, India",641605,77.33837982,11.04718048,Industrial & Manufacturing & Resources,Wholesale & Distribution,Garment exporter,Open,+91 421 221 6923,cottonpark.in,4.3,65,,People typically spend 15 min to 1 hr here,Mar-25
848f06a17950ee6aa97172357b48d43d,"SRI KAMATCHI AMMA GARMENTS - COTTON INSKIRT,NIGHTIES MANUFACTURER",Tamil Nadu,Erode,"006A, SUKKIRAMANIYA VALASU ( NORTH PERIYASEMUR, 16th Main Rd, Erode, Tamil Nadu 638004, India",638004,77.71153516,11.35940854,Industrial & Manufacturing & Resources,Wholesale & Distribution,Clothing wholesaler,Open,+91 90258 68122,kamatchigarments.com,4.8,107,,People typically spend 15 min to 1 hr here,Mar-25
5deaca62b83f52543edf521edc23b973,ANAND FOOD AND DAIRY PRODUCTS,Gujarat,"Anand, Chikhodra","Chikhodra- Sarsa Road, Chikhodra, Anand, Gujarat 388320, India",388320,73.00587442,22.56138553,Industrial & Manufacturing & Resources,Wholesale & Distribution,Food products supplier,Open,+91 2692 268 370,anandfoodproduct.com,4.6,59,,People typically spend 15 min to 1.5 hr here,Mar-25
3a2aeef18f9d06b76ec11a8342c39fd0,Aquabreeze Air Cooler - Best Air Coolers Dealer Distributors Manufacturer & Online Cooler Seller In Pune,Maharashtra,Pimpri-Chinchwad,"129/2, near Sharayu Toyota, behind Mobile Tower, Ashok Nagar, Tathawade, Pimpri-Chinchwad, Maharashtra 411033, India",411033,73.74758294,18.62369683,Industrial & Manufacturing & Resources,Wholesale & Distribution,Water cooler supplier,Open,+91 87883 00156,nowandagain.in,4.6,148,,People typically spend 15-45 min here,Mar-25
1d746b51f29039108b84567d66e89a94,Falcon Pumps Private Limited,Gujarat,Rajkot,"Vavdi Industrial Area, Gondal Road, NH 27, Post:, Vavdi, Rajkot, Gujarat 360004, India",360004,70.79574576,22.23847037,Industrial & Manufacturing & Resources,Industrial & Resource Production,Water pump supplier,Open,+91 97277 00566,falconpumps.in,4.3,538,,People typically spend 15 min to 1 hr here,Mar-25
54c1ea7838354804dd1933406f30cc1c,KOLKATA INTERNATIONAL HAAT,West Bengal,Howrah,"Jaypee Haat, Biswaspara, Howrah, West Bengal 711302, India",711302,88.23762444,22.60582928,Industrial & Manufacturing & Resources,Wholesale & Distribution,Clothing wholesaler,Open,+91 96745 55555,jaypeehaat.com,3.7,40,,People typically spend 25 min to 2.5 hr here,Mar-25
d6fdf9de7e4b5c2b39c4d6fccb969885,J.N.Arora & Co. Pvt. Ltd.,Delhi,Delhi,"276, Patparganj Industrial Area, Patparganj, Delhi, 110092, India",110092,77.31321127,28.64350127,Industrial & Manufacturing & Resources,Wholesale & Distribution,Printing equipment and supplies,Open,+91 11 4323 2525,jnarora.in,4.4,113,,People typically spend 20 min to 2 hr here,Mar-25
083758e7ad8a509864015a35608018c5,Flying Trade (India) Pvt. Ltd,Punjab,Gopalpur Alias Bidh,"Gopalpur Alias Bidh, Punjab 144021, India",144021,75.52099219,31.3963851,Industrial & Manufacturing & Resources,Wholesale & Distribution,Agricultural product wholesaler,Open 24 hours,+91 88720 47006,ftgplc.in,4.6,16,,People typically spend 20 min to 2.5 hr here,Mar-25
3618d4186bcc5aa67fc5e6841fa55176,Visnukumar Traders Private Limited,Tamil Nadu,Chennai,"28A, Padur Main Road, Kuthambakam, Chennai, Tamil Nadu 600124, India",600124,80.03292416,13.04462826,Industrial & Manufacturing & Resources,Wholesale & Distribution,Food and beverage exporter,Open,+91 44 2681 0615,vktpl.com,4.7,43,,People typically spend 15 min to 2.5 hr here,Mar-25
c4bef7b6e433803d2bb5fe2158db513c,MG Auto Service Sindhanur,Karnataka,Sindhanur,"OPP SANTOOSH WEIGH BRIDGE opp: Santosh Weigh Bridge, Kushtagi Rd, Sindhanur, Karnataka 584128, India",584128,76.74100566,15.76660723,Industrial & Manufacturing & Resources,Agriculture & Forestry,Farm equipment repair service,Open,+91 94808 40121,claas.co.in,4.4,90,,People typically spend 10-45 min here,Mar-25
f39476334e953731e101a509f0425899,J C Hometex,Rajasthan,Jaipur,"G-164, B, Near, Chatrala Circle, Sitapura Industrial Area, Sitapura, Jaipur, Rajasthan 302022, India",302022,75.84049643,26.77598093,Industrial & Manufacturing & Resources,Wholesale & Distribution,Garment exporter,Open,+91 141 277 1739,jchometex.com,4.5,22,,People typically spend 25 min to 3 hr here,Mar-25
5dbb8ae8542bbb98bdbadae852dc336c,Khanuja Enterprises,Madhya Pradesh,Indore,"Gangotri Complex, 17, Opp. Dawa Bazar, Kibe Compound, Indore, Madhya Pradesh 452001, India",452001,75.87441734,22.71328731,Industrial & Manufacturing & Resources,Wholesale & Distribution,Wholesaler,Open,+91 93000 76161,khanujaenterprises.com,3.8,23,,People typically spend 15-45 min here,Mar-25
a877ce7f818d763c82097acb0e796d8f,Soumya Foods Pvt Ltd ( Mushrooms & Cordyceps Militaris),Uttarakhand,Dehradun,"Mothrowala, Dehradun, Uttarakhand 248001, India",248001,78.03341782,30.26510962,Industrial & Manufacturing & Resources,Agriculture & Forestry,Agricultural production,Open,+91 74099 93860,keedajadihealth.com,4,252,,People typically spend 15 min to 1 hr here,Mar-25
87fa80f0a672df01f2139410acbb5f13,Haryana Seeds Development Corporation Limited,Haryana,Panchkula,"BEEJ BHAWAN, BAYS 3-6, Sector 2, Panchkula, Haryana 134102, India",134102,76.86271151,30.6997746,Industrial & Manufacturing & Resources,Agriculture & Forestry,Agricultural production,Open,+91 172 257 7755,haryanaseeds.org.in,3.9,108,,People typically spend 25 min to 2 hr here,Mar-25
ca84c5a2f01858b71e8db1e9f32580bc,Deepa Agencies,Kerala,"Kochi, Ernakulam","39/1384 Four Star Buildings Chittoor Road Valanjambalam, Ernakulam South, Kochi, Kerala 682016, India",682016,76.2886457,9.96573298,Industrial & Manufacturing & Resources,Wholesale & Distribution,Electrical products wholesaler,Open,+91 484 237 5025,deepagroup.com,4.3,294,,People typically spend 20 min here,Mar-25
6bf6737d4094d74b3b63a5422de3b6f8,JEVINA PLACEMENT OIL & GAS TRAINING & PLACEMENT,Tamil Nadu,Kavalkinaru,"Railway gate, Near, Junction, Kavalkinaru, Tamil Nadu 627105, India",627105,77.57417095,8.27723453,Industrial & Manufacturing & Resources,Utilities & Energy,Oil and gas exploration service,Open,+91 78455 01108,jevinaplacement.com,4.9,310,,People typically spend 15 min here,Mar-25
eccdacce6ed24110e5160b2077de4b33,DME India Pvt Ltd (Factory) Shinoli,Maharashtra,"Shinoli Bk., Shinoli","RS No. 130 Shinoli Badruk, Chandgad, Maharashtra 416507, India",416507,74.38670376,15.87039337,Industrial & Manufacturing & Resources,Industrial & Resource Production,Molding supplier,Open,+91 2320 236 535,dme.net,2.6,12,,People typically spend 20 min to 1.5 hr here,Mar-25
d2ee7a8393441a3a3a118677f95e43d2,Hira moti Car Accessories,Maharashtra,Nashik,"Hiramoti Tower, opp. Fire Brigade, Shingada Talav, Renuka Nagar, Nashik, Maharashtra 422002, India",422002,73.78679118,19.99333635,Industrial & Manufacturing & Resources,Wholesale & Distribution,Auto body parts supplier,Open,+91 94231 51116,instagram.com,4,540,,People typically spend 15 min to 1 hr here,Mar-25
2817522d183686ffc523ea4f6bf1f293,KR Fuels - Auto LPG Station - Virudhunagar,Tamil Nadu,"Virudhunagar, Kooraikundu","Panchayat, SS Agencies SF No. 356/1C, Sivakasi Road Pavali, Virudhunagar, Tamil Nadu 626001, India",626001,77.94410492,9.58388353,Industrial & Manufacturing & Resources,Utilities & Energy,Fuel supplier,Open 24 hours,+91 95855 86667,krfuels.com,4.1,168,,People typically spend 15 min here,Mar-25
19d5714b318272b76f989420bf01e1cc,VP TOOLS INDIA PVT.,Maharashtra,"Area, Kagal","Plot No. B-51/52, Kagal 5 Star MIDC Industrial Area, Area, Kagal, Maharashtra 416203, India",416203,74.34561026,16.62945696,Industrial & Manufacturing & Resources,Wholesale & Distribution,Industrial equipment supplier,Open,+91 99229 50200,mail.vpindustries.co.in,4.9,13,,People typically spend 20 min to 2.5 hr here,Mar-25
f00eb89d34f63d69655ebd6fbfcc652d,Chemind Chemicals,Kerala,Palakkad,"Chemind Tower, Jn, Kallepully Rd, Ramanathapuram Gramam, Manali, Palakkad, Kerala 678001, India",678001,76.66931412,10.77820191,Industrial & Manufacturing & Resources,Wholesale & Distribution,Chemical wholesaler,Open,+91 98472 40888,chemindchemicals.in,4.1,7,,People typically spend 15 min here,Mar-25
3f3112586ae893af4b5d3b23abe3770a,Coventry Coil-o-Matic (Haryana) Ltd.,Haryana,"Sangwari, Salhawas","87 KM, Delhi – Jaipur Highway (NH-8), Salawas, Sangwari, Haryana 123401, India",123401,76.66750485,28.14719123,Industrial & Manufacturing & Resources,Industrial & Resource Production,Spring supplier,Open,+91 98127 13777,coilomatic.com,4,60,,People typically spend 15 min to 1.5 hr here,Mar-25
650bb42aa07fbc0be1086b6e0f5152fd,DELKOR,Karnataka,Bengaluru,"108D, 6th Main Rd, Peenya III Phase, Peenya, Bengaluru, Karnataka 560058, India",560058,77.52383362,13.02914759,Industrial & Manufacturing & Resources,Industrial & Resource Production,Mining equipment,Open,+91 80 4262 1000,takraf.com,4.3,84,,People typically spend 25 min to 2.5 hr here,Mar-25
47f7d4b70baa65622a3c4462189f29f4,vintage agro foods private limited,Tamil Nadu,Balajangamanhalli,"Balajangamanhalli, Tamil Nadu 636803, India",636803,78.09589866,12.09975035,Industrial & Manufacturing & Resources,Wholesale & Distribution,Produce wholesaler,Open,+91 90923 26194,vintagefoods.co,4.5,34,,People typically spend 20 min to 1.5 hr here,Mar-25
f65dd51ad7d4636913949c029ea6ccd8,Trutech Machinery,Gujarat,Kathwada,"In-line with GIDC, 14, Rd Number 8, opp. Maruti Weigh Bridge, Tribhuvan Industrial Estate, Odhav Industrial Estate, Odhav, Kathwada, Gujarat 382430, India",382430,72.6882129,23.03504469,Industrial & Manufacturing & Resources,Wholesale & Distribution,Industrial equipment supplier,Open,+91 90999 10666,trutechmachinery.com,4.9,14,,People typically spend 15 min to 1.5 hr here,Mar-25
eb25eaba794c6811c39066ce4a5df768,HYPRATEK FLUID POWER PVT. LTD.,Karnataka,Bengaluru,"Via Attibele, Survey 56, Bandapura Village Road Balagaranahalli, Bandapura Village Road, Bengaluru, Karnataka 562107, India",562107,77.73118932,12.78183177,Industrial & Manufacturing & Resources,Industrial & Resource Production,Hydraulic equipment supplier,Open,+91 80 2782 0348,hypratekisbest.com,3.4,12,,People typically spend 15 min to 2 hr here,Mar-25
fae6fbec1a5952c9eee884fea5d3a8ac,V R COATINGS PVT. LTD. (Works),Maharashtra,"Pune, Pimpri-Chinchwad","Plot No 136, PCNTDA, Sector Number 7, Bhosari, Pune, Pimpri-Chinchwad, Maharashtra 411026, India",411026,73.83465466,18.64407884,Industrial & Manufacturing & Resources,Wholesale & Distribution,Industrial equipment supplier,Open,+91 91686 61541,vrcoatings.com,4.7,78,,People typically spend 15 min to 1.5 hr here,Mar-25
f8fca62a7e8adccf2757df9a69ac840c,IndianOil,Andhra Pradesh,Kodur,"Ground Floor Payalkunta, B, Kodur, Andhra Pradesh 516228, India",516228,79.01560462,14.88669267,Industrial & Manufacturing & Resources,Utilities & Energy,Fuel supplier,Open 24 hours,+91 90522 93464,locator.iocl.com,3.5,13,,People typically spend 15 min here,Mar-25
945b6aa7007e3586454f5a77a02b3cf9,Mahaveer Electric Agencies,Tamil Nadu,Chennai,"20/143, 20/143, Periyamedu, Choolai, Chennai, Tamil Nadu 600012, India",600012,80.26927749,13.08851745,Industrial & Manufacturing & Resources,Wholesale & Distribution,Electrical appliance wholesaler,Open,+91 98843 95004,mahaveermds.com,5,10,,People typically spend 25 min to 1 hr here,Mar-25
d9b83e1b83541edea9b7c561641f664e,Sygnio India,Delhi,Delhi,"H-36 DSIIDC, DSIIDC Industrial Area, Sector 1, Bawana, Delhi, 110039, India",110039,77.0440334,28.78576694,Industrial & Manufacturing & Resources,Industrial & Resource Production,Mold maker,Open,+91 96676 69400,sygnioin.com,4.8,19,,People typically spend 15 min to 1 hr here,Mar-25
6132286743e2ae933257381316f21c9a,Lubi Industries LLP,Chhattisgarh,"Raipur, Chandanidih","KEDIA BUSINESS PARK, PLOT NO. 5 NH-53, near MOHAN MARRIAGE HALL, Tatibandh, Raipur, Chhattisgarh 492099, India",492099,81.55740476,21.25789021,Industrial & Manufacturing & Resources,Industrial & Resource Production,Water pump supplier,Open,+91 63537 21698,lubipumps.com,4.9,119,,People typically spend 10-45 min here,Mar-25
9b7e06b69caa43094713a27795294245,SURENDRA COMPOSITES PVT LTD,Madhya Pradesh,Bhopal,"14,15 New, Phase-II, Industrial Area, Mandideep, Bhopal, Madhya Pradesh 462046, India",462046,77.56300331,23.07731431,Industrial & Manufacturing & Resources,Wholesale & Distribution,Electrical equipment supplier,Open,+91 755 426 0211,surendra.co.in,4.1,28,,People typically spend 25 min to 2 hr here,Mar-25
9c719f5f4338b9f4b9ac7195907bc07c,AMMA IRON AND STEEL,Karnataka,Ballari,"Kanekal Rd, Ibrahimpura, UHTC Ranithota, Ballari, Karnataka 583101, India",583101,76.92738751,15.12281478,Industrial & Manufacturing & Resources,Wholesale & Distribution,Wholesaler,Open,+91 70190 94089,seeglobal.in,3.8,4,,People typically spend 15 min to 1 hr here,Mar-25
00c7796fcfcd32f870a349b64c88662d,K.P.L Oil Mills (P) Ltd..,Kerala,Irinjalakuda,"Kodungallur - Shornur Highway, Irinjalakuda, Kerala 680121, India",680121,76.21616942,10.3387016,Industrial & Manufacturing & Resources,Wholesale & Distribution,Oil wholesaler,Open,+91 480 282 5222,kplindia.com,4.2,36,,People typically spend 10-45 min here,Mar-25
15a162be3aae763d4b6b8b5e402b0941,Focus Medi Sales Pvt. Ltd.,Karnataka,Bengaluru,"No:46/2, Block 7 , ARK Tech Park Road, Hosur Rd, Garvebhavi Palya, Bengaluru, Karnataka 560068, India",560068,77.64058885,12.89258027,Industrial & Manufacturing & Resources,Wholesale & Distribution,Pharmaceutical products wholesaler,Open,+91 80 4080 6999,groupunnati.com,4.2,10,,People typically spend 20 min to 1.5 hr here,Mar-25
9e86b3295a85c67e81d6ee60f31b4a0e,Life Line's Tender Chicken - Kammanahalli,Karnataka,Bengaluru,"Kullappa Circle, 37, Nehru Road, PNS Layout, Kammanahalli, Bengaluru, Karnataka 560084, India",560084,77.63797354,13.01417328,Industrial & Manufacturing & Resources,Wholesale & Distribution,Poultry store,Open,+91 80 2542 2773,instagram.com,4.1,929,,People typically spend 15 min here,Mar-25
257670bfac73b57a7371b9a45f21d3dc,Modsonic Instruments Manufacturing Co (P) Ltd : Ultrasonic Flaw Detector Manufacturer,Gujarat,Ahmedabad,"Plot No. 33 Phase 3, GIDC Naroda Industrial Estate Naroda, near Ambika Weigh Bridge, Nana Chiloda, Ahmedabad, Gujarat 382330, India",382330,72.67229316,23.10257924,Industrial & Manufacturing & Resources,Wholesale & Distribution,Equipment supplier,Open,+91 79 4890 8054,modsonic.com,4.4,55,,People typically spend 15 min to 1.5 hr here,Mar-25
b6890b76be51550acde6c82378b0f062,Marudhar Marble and Granite,West Bengal,Kolkata,"1/1 mahendra roy lane, p s peninsula, Eastern Metropolitan Bypass Connector, Topsia, Kolkata, West Bengal 700046, India",700046,88.38059715,22.5401511,Industrial & Manufacturing & Resources,Wholesale & Distribution,Natural stone wholesaler,Open,+91 79 4252 8908,dealer.grohe.co.in,4.4,87,,People typically spend 25 min to 1.5 hr here,Mar-25
97f178d7c71ffdb656be07c12f4abeaa,Vinay Industries Ltd,Gujarat,Sukhpur,"Dhoraji Rd, Sukhpur, Gujarat 362001, India",362001,70.4600132,21.59641443,Industrial & Manufacturing & Resources,Agriculture & Forestry,Agricultural service,Open,+91 285 266 0944,vinaygroups.com,4.3,78,,People typically spend 15 min to 2 hr here,Mar-25
44dc11c3392c0392a70fddcdcaf0e02e,KR Fuels - Auto LPG Station - Dharmapuri,Tamil Nadu,"Naduhalli, A.Reddihalli","Sri Sivasakthi Agencies 89/2A, Part, Dharmapuri, Palacode Rd, K, Naduhalli, Tamil Nadu 636701, India",636701,78.15678691,12.15798457,Industrial & Manufacturing & Resources,Utilities & Energy,Fuel supplier,Open 24 hours,+91 95855 86667,krfuels.com,4,83,,People typically spend 15 min here,Mar-25
032867231c96ecb74267db4d029f9f4d,Achiever Apparels Private Limited,Haryana,Gurugram,"Plot 669, Pace City II, Sector 37, Gurugram, Haryana 122001, India",122001,76.99326534,28.43079479,Industrial & Manufacturing & Resources,Wholesale & Distribution,Garment exporter,Open,+91 124 481 6001,achieverapparels.com,4.5,41,,People typically spend 15 min to 2 hr here,Mar-25
4c8686df3f987dc648fed760dd57d9ab,S SQUARE MARKETING PVT.LTD.,Odisha,Bhubaneswar,"Sector A, Mancheswar Industrial Estate, Bhubaneswar, Odisha 751010, India",751010,85.8617627,20.30351656,Industrial & Manufacturing & Resources,Wholesale & Distribution,Wholesaler,Open,+91 73810 88988,ssquaremarketing.in,4.9,523,,People typically spend 15 min to 1 hr here,Mar-25
258a4547a2c33ca01eba561b0c470183,Kamal Shaft,Gujarat,Ahmedabad,"183, Gujarat Vyapari mandal, Behind Shiv Way Bridge Near SP ring road, circle, Odhav, Ahmedabad, Gujarat 382415, India",382415,72.67938566,23.02184757,Industrial & Manufacturing & Resources,Industrial & Resource Production,Hydraulic equipment supplier,Open,+91 83201 67484,kamalshaft.in,4.4,7,,People typically spend 15-45 min here,Mar-25
443c383d40ef09171b8e6e98a708d6d3,Kesar Steel Suppliers,Gujarat,Vapi,"292/13, Sheetal Shopping Center, Sardar Chowk, GIDC Road, Silvasa Rd, Vapi, Gujarat 396195, India",396195,72.93360472,20.36163344,Industrial & Manufacturing & Resources,Industrial & Resource Production,Iron and steel store,Open,+91 98251 45521,kesarsteel.com,4.7,39,,People typically spend 10-45 min here,Mar-25
010b91f2a90d292fc538e0558c6a38bc,Sakthi Auto Ancillary Pvt Ltd,Tamil Nadu,"Coimbatore, Thudiyalur","211, 1, NGGO Colony Rd, near Akshaya Hotel, Teachers Colony, Coimbatore, Thudiyalur, Tamil Nadu 641022, India",641022,76.95056818,11.09142423,Industrial & Manufacturing & Resources,Wholesale & Distribution,Industrial equipment supplier,Open,+91 422 264 2613,saapl.net,4.3,56,,People typically spend 20 min to 2.5 hr here,Mar-25
026393a32376f9f9d26194827dd004c5,JPKnits,Punjab,Ludhiana,"Gurpreet Nagar, Guru Preet Nagar, Ludhiana, Punjab 141008, India",141008,75.84803467,30.95279234,Industrial & Manufacturing & Resources,Wholesale & Distribution,Garment exporter,Open,+91 98156 47047,jpknits.net,4.6,9,,People typically spend 25 min to 1 hr here,Mar-25
7f491b50f3fea765bee75a367a7884a0,Expoknits International,Tamil Nadu,"Tiruppur, Chettipalayam","65, Mahavishnu Nagar, Angeripalayam, Tiruppur, Chettipalayam, Tamil Nadu 641603, India",641603,77.33359728,11.13732066,Industrial & Manufacturing & Resources,Wholesale & Distribution,Garment exporter,Open,+91 421 497 8844,expoknits.com,3.8,14,,People typically spend 15 min to 2.5 hr here,Mar-25
53d229a909398d116170808e374eeeba,ARCO Arihant Industries,Haryana,Ambala,"40, HSIIDC Industrial Estate, Jagadhari Road, Ambala Cantt, Ambala, Haryana 133006, India",133006,76.88134614,30.33668517,Industrial & Manufacturing & Resources,Wholesale & Distribution,Laboratory equipment supplier,Open,+91 171 269 8165,arihantlab.com,4.3,12,,People typically spend 15 min to 2 hr here,Mar-25
939a43f7f5520592b377825ecf4ec4a4,Havells Galaxy - Lime Light Galaxy,Uttar Pradesh,Azamgarh,"Narauli, Azamgarh - Varanasi Rd, Sadar, Azamgarh, Uttar Pradesh 276001, India",276001,83.17392494,26.0465549,Industrial & Manufacturing & Resources,Wholesale & Distribution,Light bulb supplier,Open,+91 93367 08635,havells.com,4,8,,People typically spend 20 min to 1.5 hr here,Mar-25
c2081eb012cf5ad4bedd6173d6942592,Hi-Tech Sweet Water Technologies Pvt Ltd,Delhi,New Delhi,"Dev Prakash Shastri Marg Block wz 249 a ground floor, Inder Puri, New Delhi, Delhi 110012, India",110012,77.14876225,28.63170855,Industrial & Manufacturing & Resources,Industrial & Resource Production,Water purification company,Open,+91 98736 20600,hitechro.net,4.2,53,,People typically spend 20 min to 1.5 hr here,Mar-25
5397df543da72d1c0043ab1e0a7e1f82,Mecc Alte India Private Limited,Maharashtra,Shirur,"lot NO: 1, Sanaswadi, Talegaon Dhamdhere Rd, Taluka:, Shirur, Maharashtra 412208, India",412208,74.13052736,18.66018327,Industrial & Manufacturing & Resources,Industrial & Resource Production,Alternator supplier,Open,+91 2137 673 200,meccalte.com,4.3,73,,People typically spend 1-4.5 hours here,Mar-25
002fd2280e83c9eec712b5c8f2b88304,Hindustan Fibre Glass Works,Gujarat,Raman Gamdi,"C1b-231/3&4 Gidc Industrial Estate Por, Raman Gamdi, Gujarat 391243, India",391243,73.17778048,22.12918539,Industrial & Manufacturing & Resources,Industrial & Resource Production,Fiberglass supplier,Open,+91 265 283 1613,hindustanfibre.com,4.4,86,,People typically spend 25 min to 2 hr here,Mar-25
6926f9e02be8c3f306833e4f0e350a5c,Shree Balaji Nursery,Maharashtra,"Pune, Kunjirwadi","A/p Sortapwadi, Solapur - Pune Hwy, near HP Petrol Pump, NH9,Tel Haveli, Pune, Maharashtra 412110, India",412110,74.08127768,18.4876769,Industrial & Manufacturing & Resources,Wholesale & Distribution,Wholesale plant nursery,Open,+91 99227 25757,shreebalajinursery.com,4.1,23,,People typically spend 15-45 min here,Mar-25
79818582774866e2864e14a80fe5a2ae,Ace Multi Axes Systems Limited,Karnataka,Bengaluru,"No. 17, Plot No. 467-9, Peenya Industrial Area Phase IV, Peenya, Bengaluru, Karnataka 560058, India",560058,77.50941088,13.01791888,Industrial & Manufacturing & Resources,Industrial & Resource Production,Machine shop,Open 24 hours,+91 80 2836 2651,acemultiaxes.com,4.5,12,,People typically spend 25 min to 3 hr here,Mar-25
408552e63f354e2c9b1c178f4f3cedd2,Vijay's Coolmax Pvt Ltd,Uttar Pradesh,Lucknow,"Amousi Station Road, Nadarganj Industrial Area Rd, near Kanha Upwan, Lucknow, Uttar Pradesh 226008, India",226008,80.85829726,26.7688727,Industrial & Manufacturing & Resources,Wholesale & Distribution,Ice cream equipment supplier,Open,+91 94150 66079,vijaysenergyindustries.com,3.9,68,,People typically spend 25 min to 2 hr here,Mar-25
f00adc301edd3571fdc2b9e267ce33d7,federal agro industries private limited,Punjab,Dera Bassi,"Derabassi - Barwala Rd, Industrial Land Zone, Saidpura, Dera Bassi, Punjab 140507, India",140507,76.85976316,30.58749571,Industrial & Manufacturing & Resources,Wholesale & Distribution,Food and beverage exporter,Open 24 hours,+91 98720 86272,hmagroup.co,4.3,12,,People typically spend 15 min here,Mar-25
5c9e7351f87f4fd5df5e5aa453d97c8a,"Premium Transmission Ltd , Unit III",Maharashtra,Chhatrapati Sambhajinagar (Aurangabad),"G56, 57, MIDC Industrial Area, Chilkalthana, Chhatrapati Sambhajinagar (Aurangabad), Maharashtra 431006, India",431006,75.38648582,19.88766049,Industrial & Manufacturing & Resources,Wholesale & Distribution,Equipment supplier,Open,+91 240 667 6324,premium-transmission.com,4.3,45,,People typically spend 10-45 min here,Mar-25
6e924be2a1fc279f5d3ee143cc8e7f30,PAMOSA International,Maharashtra,Pune,"Times Square Building, 4th floor, 405-408, Pune - Satara Rd, Near Saibaba Mandir, Mukund Nagar, Pune, Maharashtra 411037, India",411037,73.85828593,18.4934594,Industrial & Manufacturing & Resources,Wholesale & Distribution,FMCG goods wholesaler,Open,+91 20 6573 7392,pamosa.in,4.3,1510,,People typically spend 15 min to 1 hr here,Mar-25
c1923e1cc4ec494a164c654d8170a686,P. M. Tools & Components,Karnataka,Hulisiddegowdanadoddi,"#325-E, 2nd Phase, KIADB Industrial Area, Hulisiddegowdanadoddi, Karnataka 562112, India",562112,77.43634339,12.67817954,Industrial & Manufacturing & Resources,Industrial & Resource Production,Spring supplier,Open,+91 98804 54838,pmtools.co.in,5,6,,People typically spend 20 min to 2 hr here,Mar-25
bab6038537a8181fa68f8670954209ae,Chamunda Agro seeds,Gujarat,Olak,"Main road, Olak, Gujarat 363115, India",363115,71.88562227,22.92632645,Industrial & Manufacturing & Resources,Agriculture & Forestry,Agrochemicals supplier,Open 24 hours,+91 87808 00195,kmgt.in,5,8,,People typically spend 20 min to 2.5 hr here,Mar-25
4f3a0a357986d6ed68cc3f12f9d280c2,"Excel Instruments (Pressure Gauges, Temperature gauges, Differential Pressure Gauges manufacturers)",Gujarat,Chhatral,"Plot No.1602, Phase 2, GIDC Chhatral, Chhatral, Gujarat 382729, India",382729,72.4490223,23.28502952,Industrial & Manufacturing & Resources,Wholesale & Distribution,Industrial equipment supplier,Open,+91 94263 95647,excelinstruments.com,4.4,29,,People typically spend 15 min to 1 hr here,Mar-25
b08115b51ceb206a06499b636869eea3,Rockpecker Private Limited,Punjab,Sahibzada Ajit Singh Nagar,"D-98, Phase 7, Industrial Area, Sector 74, Sahibzada Ajit Singh Nagar, Punjab 160055, India",160055,76.69463063,30.71368359,Industrial & Manufacturing & Resources,Industrial & Resource Production,Drilling equipment supplier,Open,+91 172 672 4700,rockpecker.com,4.3,32,,People typically spend 20 min to 2 hr here,Mar-25
425e1bf2d5047fc7896031d1ecf7b03d,Dharti Agro industries,Gujarat,Akodra,"Dharti Agro Industries, Char Rasta, Akodra, Gujarat 383001, India",383001,73.0092225,23.53507937,Industrial & Manufacturing & Resources,Agriculture & Forestry,Agricultural production,Open,+91 94277 23995,m.facebook.com,4.7,22,,People typically spend 15 min to 1 hr here,Mar-25
1810342d07742756eaa4cec06f540d32,NK SURGICARE,Karnataka,Kalaburagi,"10-3/64, Vital Nagar, Halbarga, Brhampur, Kalaburagi, Karnataka 585103, India",585103,76.82957528,17.32952278,Industrial & Manufacturing & Resources,Wholesale & Distribution,Surgical products wholesaler,Open,+91 94497 99952,nksurgicare.com,3.8,6,,People typically spend 20 min here,Mar-25
35af3bdb49bdc689142b3b60d68a906e,"Kumar Engineering Works - Borewell Machine, Boring Machine, बोरिंग मशीन Manufacturer",Uttar Pradesh,Pukhrayan,"Pukhrayan, Uttar Pradesh 209111, India",209111,79.85272463,26.25456337,Industrial & Manufacturing & Resources,Industrial & Resource Production,Machine workshop,Open,+91 81279 49494,kumarengineeringworks.co.in,4.8,79,,People typically spend 20 min to 1.5 hr here,Mar-25
4feaff930e9e3ff341a4b404c8c6b022,Atlantis Marbles,West Bengal,Kolkata,"1003,E.M bypass Auropota, Dhapa, Kolkata, West Bengal 700105, India",700105,88.40218562,22.53432981,Industrial & Manufacturing & Resources,Wholesale & Distribution,Marble supplier,Open,+91 98303 80812,atlantismarbles.com,4.6,84,,People typically spend 20 min to 1 hr here,Mar-25
43628bc93690afceae0e677d5bbc2d68,Riddhi Siddhi Surgical,West Bengal,Kolkata,"Room no. 8, Gandhi Building, 44, Ezra St, 1st Floor, Chitpur, Lal Bazar, Kolkata, West Bengal 700001, India",700001,88.35347782,22.57667491,Industrial & Manufacturing & Resources,Wholesale & Distribution,Surgical products wholesaler,Open,+91 93304 36793,riddhisiddhisurgical.in,4.9,38,,People typically spend 10-45 min here,Mar-25
1bd78f2ceda4deaef880bb2b3b6ea446,Sagar Biotech Pvt Ltd,Gujarat,Kamrej,"SAGAR HOUSE"" Ploat No. 1 to 5 Shiv Eco Industries - || parab village, Kamrej, Gujarat 394310, India",394310,72.99621257,21.18862031,Industrial & Manufacturing & Resources,Agriculture & Forestry,Agricultural production,Open,+91 90810 98686,sagarbiotech.in,4.5,21,,People typically spend 10 min to 1 hr here,Mar-25
d735745df6e936f5ecd0619a14794b84,Press Tool Industries,Uttar Pradesh,Ghaziabad,"D-103, Block A, Loha Mandi, Bulandshahr Road Industrial Area, Ghaziabad, Uttar Pradesh 201001, India",201001,77.4605158,28.65272827,Industrial & Manufacturing & Resources,Industrial & Resource Production,Machine shop,Open 24 hours,+91 98101 73178,presstoolindustries.com,5,3,,People typically spend 20 min to 2 hr here,Mar-25
